schoolId,schoolName,schoolAddress,province,school_level,lat,long
20100184,SMAS MUHAMMADIYAH 14 JAKARTA,JL. DANAU LIMBOTO NO. 2,Prop. D.K.I. Jakarta,SMA,-6.208,106.8082
20103424,SMAS ARENA SISWA 2,JL. KRAMAT ASEM RAYA NO. 46,Prop. D.K.I. Jakarta,SMA,-6.2035,106.8707
20101625,SMAN 16 JAKARTA,JL. BELIBIS TERUSAN NO. 16,Prop. D.K.I. Jakarta,SMA,-6.1933,106.7862
20103284,SMAN 14 JAKARTA,JL. SMA BARAT CILILITAN,Prop. D.K.I. Jakarta,SMA,-6.2563,106.8678
20101622,SMAN 2 JAKARTA,JL. GAJAH MADA NO. 175,Prop. D.K.I. Jakarta,SMA,-6.1485,106.8161
20100795,SMAN 73 JAKARTA,JL. RAYA CAKUNG CILINCING,Prop. D.K.I. Jakarta,SMA,-6.1115,106.9244
20103181,SMAS MUHAMMADIYAH 12 JAKARTA,JL. KHA DAHLAN NO. 20,Prop. D.K.I. Jakarta,SMA,-6.2088,106.863
20107400,SMAS YAPPENDA,JL. SWASEMBADA TIMUR V NO. 10,Prop. D.K.I. Jakarta,SMA,-6.1252,106.8905
20103425,SMAS ANGKASA 2 H PERDANAKUSUMA,AVIA KOMPLEK SKADRON,Prop. D.K.I. Jakarta,SMA,-6.2755,106.8883
20107275,SMAS 28 OKTOBER 1928,JL. Mampang Prapatan XI,Prop. D.K.I. Jakarta,SMA,-6.2629,106.8176
20107398,SMAS WIJAYA KUSUMA JAKARTA,JL. BANDENGAN UTARA NO. 80,Prop. D.K.I. Jakarta,SMA,-6.1359,106.8017
20103204,SMAS DIPONEGORO 2 JAKARTA,JL. KAYU TINGGI CAKUNG,Prop. D.K.I. Jakarta,SMA,-6.1798,106.9479
20107382,SMAS KRISTEN IPEKA PLUIT,JL. PLUIT TIMUR B UTARA NO. 1,Prop. D.K.I. Jakarta,SMA,-6.1211,106.7743
20107342,SMAS YMIK 2 JAKARTA,MANGGARAI UTARA VII,Prop. D.K.I. Jakarta,SMA,-6.2112,106.8522
20104438,SMAS SUMPAH PEMUDA,JL.RAYA JOGLO NO.36,Prop. D.K.I. Jakarta,SMA,-6.2204,106.7369
20177916,SMAS LENTERA INDONESIA,JL. SULTAN ISKANDAR MUDA NO. 98,Prop. D.K.I. Jakarta,SMA,-6.251,106.7763
20100603,SMAS KRISTEN YUSUF,JL. ARWANA 2/16 JEMBATAN DUA,Prop. D.K.I. Jakarta,SMA,-6.1414,106.7948
69856892,SMA NORTH JAKARTA INTERCULTURAL SCHOOL,JL. BOULEVARD BUKIT GADING RAYA,Prop. D.K.I. Jakarta,SMA,-6.158553,106.896025
20107374,SMA DARMA SATRIA PERSADA,JL. KOMPLEK TELUK INDAH BLOK Q2 NO. 2-4,Prop. D.K.I. Jakarta,SMA,-6.1392,106.774
20100183,SMAS MUHAMMADIYAH 16 JAKARTA,JL. KALIBARU BARAT NO. 52D,Prop. D.K.I. Jakarta,SMA,-6.1699,106.8465
20103238,SMAS IGN SLAMET RIYADI,JL. RAYA BOGOR KM.24,Prop. D.K.I. Jakarta,SMA,-6.3169,106.8624
20107307,SMAS ISLAM AL-KHOLIDIN JAKARTA,Jalan Wijaya I Blok O Komp Masjid Syarif Hidayatullah,Prop. D.K.I. Jakarta,SMA,-6.2471,106.8063
20100811,SMAN 41 JAKARTA,JL. LAKS. RE MARTADINATA,Prop. D.K.I. Jakarta,SMA,-6.1304,106.8525
20101327,SMAS 3 KALAM KUDUS,JL.GREEN GARDEN B4 / 1,Prop. D.K.I. Jakarta,SMA,-6.1894,106.7614
20107399,SMAS YANIIC JAKARTA,JL. TELUK SEMANGKA NO. 103,Prop. D.K.I. Jakarta,SMA,-6.1411,106.9278
20103218,SMAS BUDAYA JAKARTA,JL. DERMAGA BARU KLENDER,Prop. D.K.I. Jakarta,SMA,-6.2189,106.9067
20107191,SMAS IT AL HALIMIYAH JAKARTA,JL. ROBUSTA RAYA NO. 31,Prop. D.K.I. Jakarta,SMA,-6.225,106.9467
20100191,SMAS KRISTEN KETAPANG 1 JAKARTA,JL. K.H. ZAINUL ARIFIN 35,Prop. D.K.I. Jakarta,SMA,-6.1606,106.8141
20108383,SMAS SANTA URSULA,JL. POS NO. 2,Prop. D.K.I. Jakarta,SMA,-6.1687,106.834
69889105,SMA MAHATMA GADING INTERCULTURAL SCHOOL,Jl. Boulevard BGR Komplek Villa Gading Indah Blok Q,Prop. D.K.I. Jakarta,SMA,-6.146867,106.907674
20107389,SMAS PERMATA INDAH JAKARTA,JL. KAMPUNG GUSTI BLOK A /1,Prop. D.K.I. Jakarta,SMA,-6.139,106.7781
20100198,SMAS SANTA THERESIA JAKARTA,JL. HAJI AGUS SALIM 75 JAKARTA,Prop. D.K.I. Jakarta,SMA,-6.1891,106.8255
20110265,SMAS PELITA KASIH,JL. TAMAN PALEM LESTARI BLOK E.9 NO.1,Prop. D.K.I. Jakarta,SMA,-6.1408,106.7227
20107331,SMAS SULUH JAKARTA,JL. PALAPA RAYA NO. 1,Prop. D.K.I. Jakarta,SMA,-6.2883,106.8422
20107283,SMAS BINA NUSANTARA,JL. SULTAN ISKANDAR MUDA G. 8,Prop. D.K.I. Jakarta,SMA,-6.2595,106.7821
20100490,SMAS PSKD 1 JAKARTA,JL. DIPONEGORO NO. 80,Prop. D.K.I. Jakarta,SMA,-6.1803,106.8401
20104413,SMAS DIAN HARAPAN,JL. BEDUGUL DAAN MOGOT BARU NO. 1,Prop. D.K.I. Jakarta,SMA,-6.1478,106.7075
20107250,SMAS PSKD MANDIRI,JL. GGSY RATULANGI NO.14,Prop. D.K.I. Jakarta,SMA,-6.1886,106.8319
20101617,SMAS TUNAS INDONESIA,JL. DURI SEMANAN RT.01/01,Prop. D.K.I. Jakarta,SMA,-6.1625,106.7135
69816348,SMA KATOLIK LIA STEPHANIE,Taman Surya V Blok EE2 No. 20-27,Prop. D.K.I. Jakarta,SMA,-6.142594,106.70953
20103229,SMAS JAKARTA RAYA,JL. RAYA PONDOK GEDE  NO. 36,Prop. D.K.I. Jakarta,SMA,-6.2883,106.8993
20102231,SMAK TIRTAMARTA - BPK PENABUR,"Jl. Sekolah Kencana IV, Pondok Indah",Prop. D.K.I. Jakarta,SMA,-6.2838,106.7882
20100611,SMAS PUSAKA NUSANTARA,JL. EDAM 2 NO. 17,Prop. D.K.I. Jakarta,SMA,-6.111,106.8919
20100802,SMAN 110 JAKARTA,JL. BENDUNGAN MELAYU NO 80,Prop. D.K.I. Jakarta,SMA,-6.1337,106.905
20101301,SMAS REGINA PACIS,JL. PALMERAH UTARA I,Prop. D.K.I. Jakarta,SMA,-6.2014,106.7969
20103228,SMAS KRISTEN 7 BPK PENABUR JAKARTA,JL. RAYA CIPINANG INDAH II,Prop. D.K.I. Jakarta,SMA,-6.2368,106.8934
20100186,SMAS KRISTEN 2 BPK PENABUR,JL. PINTU AIR RAYA NO. 11,Prop. D.K.I. Jakarta,SMA,-6.1667,106.8313
20100781,SMAN 83 JAKARTA,JL. TIPAR CAKUNG,Prop. D.K.I. Jakarta,SMA,-6.1561,106.9274
20112503,SMAS K CALVIN,JL. INDUSTRI B14 KAV. 1,Prop. D.K.I. Jakarta,SMA,-6.1528,106.8429
20107370,SMA BINA TUNAS BANGSA,JL. PLUIT TIMUR BLOK MM,Prop. D.K.I. Jakarta,SMA,-6.142,106.7949
20104407,SMAS BUKIT SION,TAMAN KEBON JERUK BLOK GA 1,Prop. D.K.I. Jakarta,SMA,-6.2001,106.7445
20109180,SMAS MARIE JOSEPH,JL PUSPA GADING I BLOK H2 No.10-12 Pegangsaan Dua Kelapa Gading Jakarta Utara,Prop. D.K.I. Jakarta,SMA,-6.1731,106.9148
20103212,SMAS CAHAYA SAKTI JAKARTA,JL. OTISTA NO. I/II,Prop. D.K.I. Jakarta,SMA,-6.2253,106.8682
20100199,SMAN 68 JAKARTA,JL. SALEMBA RAYA 18,Prop. D.K.I. Jakarta,SMA,-6.1979,106.8509
20103278,SMAN 91 JAKARTA,JL.LEMBAH LONTAR,Prop. D.K.I. Jakarta,SMA,-6.2389,106.9328
20107318,SMAS MUTTAQIEN JAKARTA,JL. ASEM BARIS RAYA NO. 5,Prop. D.K.I. Jakarta,SMA,-6.2334,106.862
69755458,SMA PELANGI KASIH,TAMAN GRISENDA A1/28 JL. PANTAI INDAH TIMUR,Prop. D.K.I. Jakarta,SMA,-6.0995,106.7197
20100804,SMAN 114 JAKARTA,JL. PEDONGKELAN NO 25,Prop. D.K.I. Jakarta,SMA,-6.1095,106.9349
20101342,SMAS DAMAI,JL. DURI SELATAN V NO. 29,Prop. D.K.I. Jakarta,SMA,-6.1593,106.8045
20101329,SMAS CENGKARENG 1,JL. BAMBU LARANGAN RAYA NO. 67,Prop. D.K.I. Jakarta,SMA,-6.1426,106.7182
20108506,SMAS PGRI 15 JAKARTA,JL. MUTIARA,Prop. D.K.I. Jakarta,SMA,-6.2089,106.8148
20103214,SMAS BUDHI WARMAN 2,JL. RAYA BOGOR KM.28,Prop. D.K.I. Jakarta,SMA,-6.3407,106.865
20107394,SMAS ST MARIA DELLA STRADA,JL. PADEMANGAN I GG. 7/18,Prop. D.K.I. Jakarta,SMA,-6.1321,106.8342
20102563,SMAN 90 JAKARTA,Jl. Sabar Petukangan`,Prop. D.K.I. Jakarta,SMA,-6.2435,106.7481
20103220,SMAS FRANSISKUS 2 JAKARTA,JL. BANGUNAN BARAT 29,Prop. D.K.I. Jakarta,SMA,-6.1849,106.8808
20107294,SMAS DEWI SARTIKA,JL. TEBET BARAT DALAM NO. 39,Prop. D.K.I. Jakarta,SMA,-6.2373,106.8477
20101332,SMAS BUNDA HATI KUDUS,JL. RAHAYU NO. 22,Prop. D.K.I. Jakarta,SMA,-6.1642,106.7857
20100210,SMAN 5 JAKARTA,JL. RAYA SUMUR BATU,Prop. D.K.I. Jakarta,SMA,-6.1594,106.8669
20101318,SMAS PROVIDENTIA,JL. KEDOYA RAYA NO. 35,Prop. D.K.I. Jakarta,SMA,-6.1662,106.7636
20107278,SMAS ASISI JAKARTA,JL. HAJI RAMLI RT. 005/03,Prop. D.K.I. Jakarta,SMA,-6.2314,106.8423
20100181,SMAS TAMAN MADYA I JAKARTA,JL. SUNTER BENDUNGAN JAGO 11,Prop. D.K.I. Jakarta,SMA,-6.1573,106.8571
20103194,SMAS ST ALEXIUS JAKARTA,JL. AMAL NO. 2 RT. 06/01,Prop. D.K.I. Jakarta,SMA,-6.2268,106.8994
69939320,SMA Raffles Christian School Kelapa Gading,"Jalan Gading Pelangi 1, Kelurahan Pegangsaan Dua, Kecamatan Kelapa Gading, Kota",Prop. D.K.I. Jakarta,SMA,-6.1707,106.9025
20109467,SMAS KRISTEN IPEKA PURI INDAH,JL. PURI INDAH BLOK I,Prop. D.K.I. Jakarta,SMA,-6.1878,106.75
20100173,SMAS PASKALIS,JL. RANJAU NO. 13 KODAM,Prop. D.K.I. Jakarta,SMA,-6.1616,106.8727
20104424,SMAS KRISTEN IPEKA TOMANG,GREEN VILLE BLOK D,Prop. D.K.I. Jakarta,SMA,-6.1695,106.779
20109516,SMAS INTERNATIONAL ISLAMIC HIGH SCHOOL (IIHS),JL. HR. RASUNA SAID KAV. X-2 NO. 4,Prop. D.K.I. Jakarta,SMA,-6.2279,106.8336
20102213,SMAN 37 JAKARTA,JL. H. KEBON BARU,Prop. D.K.I. Jakarta,SMA,-6.2346,106.8587
20103430,SMAS PSKD II JAKARTA,JL. TAMAN SLAMET RIYADI NO. 03,Prop. D.K.I. Jakarta,SMA,-6.2115,106.8589
20103187,SMAS VILLA MAS JAKARTA,JL. KAYU PUTIH UTARA 3C,Prop. D.K.I. Jakarta,SMA,-6.1813,106.8975
20101624,SMAN 17 JAKARTA,JL. Mangga Besar IV/I No.27,Prop. D.K.I. Jakarta,SMA,-6.1525,106.824
20101353,SMAS FATAHILLAH,JL. DR. SEMERU RAYA NO. 1,Prop. D.K.I. Jakarta,SMA,-6.1585,106.7962
20103428,SMAS AL GHURABAA JAKARTA,JL. TENGGIRI RAYA NO. 47,Prop. D.K.I. Jakarta,SMA,-6.1992,106.8921
20101330,SMAS CANDRA NAYA,JL. JEMBATAN BESI II NO. 26,Prop. D.K.I. Jakarta,SMA,-6.1501,106.7962
20102565,SMAN 86 JAKARTA,Jl. Bintaro Permai IV No. 36,Prop. D.K.I. Jakarta,SMA,-6.2622,106.7613
20101606,SMAS TUNAS HARAPAN,JL. KOMPLEK BANK BNI PESING,Prop. D.K.I. Jakarta,SMA,-6.1554,106.7719
20103231,SMAS MALAHAYATI,JL. BIMA NO.3,Prop. D.K.I. Jakarta,SMA,-6.3249,106.8594
20101331,SMAS CAKRA BUANA,JL. KOMPLEK KEBERSIHAN 17,Prop. D.K.I. Jakarta,SMA,-6.1277,106.7196
20109933,SMAN UNGGULAN M.H. THAMRIN,JL BAMBU WULUNG,Prop. D.K.I. Jakarta,SMA,-6.3159,106.9019
20103216,SMAS BUDHAYA 2 ST AGUSTINUS,"Jl. Radin Inten II, Buaran",Prop. D.K.I. Jakarta,SMA,-6.2207,106.923
20103219,SMAS FONS VITAE 1 JAKARTA,JL. MATRAMAN RAYA NO. 129,Prop. D.K.I. Jakarta,SMA,-6.2074,106.8594
20100632,SMAS TUNAS GADING,JL. GADING PUTIH RAYA P2/23,Prop. D.K.I. Jakarta,SMA,-6.168,106.9121
20107287,SMA BUNDA KANDUNG JAKARTA,JL.POL. TANGAN RAYA NO.41,Prop. D.K.I. Jakarta,SMA,-6.2955,106.8429
20103173,SMAS PEMBANGUNAN 3 JATINEGARA,RAYA BEKASI KM. 18,Prop. D.K.I. Jakarta,SMA,-6.1882,106.9648
20107288,SMA CENDERAWASIH 1,JL. RS. FATMAWATI KOMPLEK KEMLU,Prop. D.K.I. Jakarta,SMA,-6.3127,106.7943
20103183,SMAS PKP,JL. KELAPA DUA WETAN,Prop. D.K.I. Jakarta,SMA,-6.339,106.8834
20108504,SMAS NASIONAL ANGLO,JL. RAJAWALI SELATAN NO. 10 X,Prop. D.K.I. Jakarta,SMA,-6.1927,106.8673
20107289,SMA CHARITAS,JL. MAWAR INDAH 75,Prop. D.K.I. Jakarta,SMA,-6.2967,106.7716
20107384,SMAS KRISTEN TUNAS BANGSA,JL SUNTER GARDEN BLOK. C-7,Prop. D.K.I. Jakarta,SMA,-6.1392,106.8749
20100607,SMAS PERMAI JAKARTA,JL. PLUIT KARANG BARAT BLOK O - VI,Prop. D.K.I. Jakarta,SMA,-6.1211,106.7742
NA,SMA HERITAGE SCHOOL JAKARTA,Jl. Letjen Soepono No 34,Prop. D.K.I. Jakarta,SMA,-6.2713475,106.7819156
20107319,SMAN 28 JAKARTA,Jl. Raya Ragunan,Prop. D.K.I. Jakarta,SMA,-6.2858,106.8332
20100200,SMAN 7 JAKARTA,JL. KARET PS. BARU BARAT V,Prop. D.K.I. Jakarta,SMA,-6.2109,106.8147
20107280,SMAS BAKTI IDHATA JAKARTA,JL. MELATI NO. 25,Prop. D.K.I. Jakarta,SMA,-6.2836,106.7942
20100505,SMAS ISLAM AL - JIHAD JAKARTA,JL. KRAMAT JAYA BARU,Prop. D.K.I. Jakarta,SMA,-6.1857,106.8517
20102562,SMAN 97 JAKARTA,JL. BRIGIF 2 CIGANJUR,Prop. D.K.I. Jakarta,SMA,-6.3422,106.801
20103185,SMAS WIJAYA KUSUMA,JL. MUJAHIDIN NO. 17A RAMBUTAN. JAKTIM,Prop. D.K.I. Jakarta,SMA,-6.3084,106.8803
20104417,SMAS JOSUA,Jl. Kota Bambu Utara II No. 08,Prop. D.K.I. Jakarta,SMA,-6.1855,106.8073
20107326,SMAS PGRI 3 JAKARTA,JL. PONDOK LABU IB NO. 29A,Prop. D.K.I. Jakarta,SMA,-6.3046,106.792
20101623,SMAN 19 JAKARTA,JL. PERNIAGAAN NO. 31,Prop. D.K.I. Jakarta,SMA,-6.1445,106.8221
20104430,SMAS PETRA,JL. TAMAN ALFA INDAH BLOK A- 11,Prop. D.K.I. Jakarta,SMA,-6.2197,106.7503
20100630,SMAS DHARMA BUDHI BHAKTI JAKARTA,JL. AGUNG TENGAH VII NO. 1,Prop. D.K.I. Jakarta,SMA,-6.1445,106.8684
69873573,SMA WESTIN,TELUK GONG JL. G NO 408,Prop. D.K.I. Jakarta,SMA,-6.136075,106.781862
20103298,SMAN 44 JAKARTA,JL. DELIMA IV PERUMNAS KLENDER,Prop. D.K.I. Jakarta,SMA,-6.2222,106.9292
20100608,SMAS PGRI 12 JAKARTA,JL. TABAH I NO. 5,Prop. D.K.I. Jakarta,SMA,-6.1633,106.8852
20103205,SMAS DIPONEGORO 1 JAKARTA,JL. SUNAN GIRI NO. 5,Prop. D.K.I. Jakarta,SMA,-6.1955,106.8832
20102211,SMAN 43 JAKARTA,JL. MINANGKABAU DALAM,Prop. D.K.I. Jakarta,SMA,-6.2171,106.841
20103215,SMAS BUDHI WARMAN 1,JL. RAYA BOGOR KM. 19,Prop. D.K.I. Jakarta,SMA,-6.2854,106.8728
20101337,SMAS BHINEKA TUNGGAL IKA,JL. K.H. M. MANSYUR NO. 222 A,Prop. D.K.I. Jakarta,SMA,-6.1473,106.8066
20104423,SMAK IPEKA INTEGRATED CHRISTIAN SCHOOL,KOMPLEK TAMAN MERUYA ILIR  JL. BATU MULIA BLOK K JAKARTA BARAT,Prop. D.K.I. Jakarta,SMA,-6.1994,106.7379
20101325,SMAS MUHAMMADIYAH 24,JL. DR. SUSILO 1 GROGOL,Prop. D.K.I. Jakarta,SMA,-6.1633,106.7936
20102571,SMAN 66 JAKARTA,JL. BANGO III PONDOK LABU CILANDAK JAKARTA SELATAN,Prop. D.K.I. Jakarta,SMA,-6.3066,106.805
20103295,SMAS YP IPPI JAKARTA,JL. RAYA PANGGILINGAN A.ELOK,Prop. D.K.I. Jakarta,SMA,-6.1996,106.9402
20107311,SMA KEMALA BHAYANGKARI 1,Jl. Ampera Raya Komplek Polri Ragunan,Prop. D.K.I. Jakarta,SMA,-6.2831,106.8195
20101305,SMAS 4 KRISTEN PENABUR,JL. SURYA SRANA SUNRISE,Prop. D.K.I. Jakarta,SMA,-6.1749,106.7626
20103210,SMAS CORPATARIN JAKARTA,JL. PONDOK KOPI RAYA NO. 87,Prop. D.K.I. Jakarta,SMA,-6.2273,106.9439
20107298,SMAS GITTA KIRTTI 3 JAKARTA,JL. BRI RADIO DALAM,Prop. D.K.I. Jakarta,SMA,-6.2588,106.7918
20100177,SMAS PGRI 14 DKI JAKARTA,JL. SETIA KAWAN 3 NO. 25,Prop. D.K.I. Jakarta,SMA,-6.1645,106.8014
20100778,SMAS TUNAS KARYA JAKARTA,JL. PALEPAH KUNING NO. 3,Prop. D.K.I. Jakarta,SMA,-6.1609,106.9036
20103258,SMAN 93 JAKARTA,JL. RAYA BOGOR KOMP. PASWALPRES,Prop. D.K.I. Jakarta,SMA,-6.2918,106.8692
20109326,SMAS KASIH KARUNIA,Taman Palem Lestari Blok F6 No. 21-23,Prop. D.K.I. Jakarta,SMA,-6.1394,106.7194
20107274,SMAS 17 AGUSTUS 45 JAKARTA,JL. TEBET DALAM 3A,Prop. D.K.I. Jakarta,SMA,-6.2247,106.8502
20104410,SMAS  GLOBAL SEVILLA PURI INDAH,JL.KEMBANGAN RAYA BLOK JJ NO.1,Prop. D.K.I. Jakarta,SMA,-6.1773,106.7462
20103294,SMAN 100 JAKARTA,JL. PERSATUAN 2,Prop. D.K.I. Jakarta,SMA,-6.2294,106.8826
20103227,SMA KAPIN,JL. RAYA KALIMALANG,Prop. D.K.I. Jakarta,SMA,-6.2504,106.9291
20102564,SMAN 87 JAKARTA,JL Mawar II,Prop. D.K.I. Jakarta,SMA,-6.2864,106.7612
20101338,SMAS BAPTIS ELIM,JL DR. SUSILO 1 / 388,Prop. D.K.I. Jakarta,SMA,-6.1659,106.7917
20100600,SMA ISLAM AL-AZHAR KELAPA GADING,Jl. Bulevar Timur,Prop. D.K.I. Jakarta,SMA,-6.1635,106.9097
20101307,SMAS 2 KEMURNIAN,PERUM GREEN VILLE BLOK Q/209,Prop. D.K.I. Jakarta,SMA,-6.1689,106.7795
20100803,SMAN 111 JAKARTA,JL. BANDENGAN UTARA 80,Prop. D.K.I. Jakarta,SMA,-6.1359,106.8017
69772648,SMAS LAKESIDE MONTESSORI,VILLA CIBUBUR INDAH U1-16 CIBUBUR,Prop. D.K.I. Jakarta,SMA,-6.351,106.8768
20107277,SMAS AL IZHAR JAKARTA,JL. RS. FATMAWATI KAV. 49,Prop. D.K.I. Jakarta,SMA,-6.3103,106.7935
69759048,SMAS BINA KUSUMA MULIA,CITRA GARDEN I BLOK I-8,Prop. D.K.I. Jakarta,SMA,-6.1011,106.6936
20101340,SMAS AL HUDA CENGKARENG,JL. UTAMA RAYA NO. 2,Prop. D.K.I. Jakarta,SMA,-6.1497,106.7273
20100484,SMAS AT TAQWA JAKARTA,JL. RAJAWALI SELATAN VI NO. 18,Prop. D.K.I. Jakarta,SMA,-6.1454,106.8396
20101351,SMAS 2 GALATIA,JL. MERPATI RAYA NO. 1,Prop. D.K.I. Jakarta,SMA,-6.1559,106.776
20103427,SMAS AL HIKMAH JAKARTA,JL. JATI BARANG V NO. 40,Prop. D.K.I. Jakarta,SMA,-6.1917,106.9007
20103291,SMAN 104 JAKARTA,"JL. H. TAIMAN BARAT KEL.GEDONG,JAKARTA TIMUR",Prop. D.K.I. Jakarta,SMA,-6.2991,106.8622
20107387,SMAS NURUL FALAH JAKARTA,DEWA KEMBARN KOMP.TNI AL,Prop. D.K.I. Jakarta,SMA,-6.1083,106.9259
20107320,SMAN 79 JAKARTA,JL. MENTENG PULO UJUNG,Prop. D.K.I. Jakarta,SMA,-6.2222,106.8381
20103289,SMAN 106 JAKARTA,JL. GANDARIA I PEKAYON PASAR REBO JAKARTA TIMUR,Prop. D.K.I. Jakarta,SMA,-6.3148,106.8748
20107390,SMAS SAINT PETER,JL. BOULEVARD TIMUR RAYA NO. 8,Prop. D.K.I. Jakarta,SMA,-6.1652,106.9148
20103196,SMAS SANTO YOSEPH JAKARTA,PERUM. METLAND MENTENG KAV F-4,Prop. D.K.I. Jakarta,SMA,-6.1815,106.9697
20103241,SMAS YAKE JAKARTA,JL. RAYA JATINEGARA  TIMUR,Prop. D.K.I. Jakarta,SMA,-6.222,106.8683
20101614,SMAS SANTO LEO,JL. MANGGA BESAR RAYA NO. 43,Prop. D.K.I. Jakarta,SMA,-6.1497,106.8202
20100215,SMAS YP IPPI PETOJO JAKARTA,JL. PETOJO BARAT III/2,Prop. D.K.I. Jakarta,SMA,-6.1638,106.8113
20104411,SMAS DUTA BANGSA,JL. KAPUK RAYA RT 02/011-71,Prop. D.K.I. Jakarta,SMA,-6.1364,106.7448
20101467,SMAS SAN MARINO,JL. CITRA GARDEN I BLOK  I NO. 1,Prop. D.K.I. Jakarta,SMA,-6.150394,106.693731
20107328,SMAS PURNAMA JAKARTA,JL. TIRTAYASA V,Prop. D.K.I. Jakarta,SMA,-6.2415,106.8058
20103190,SMAS TUNAS MARKATIN JAKARTA,JL. WARU NO. 20 B,Prop. D.K.I. Jakarta,SMA,-6.1959,106.8883
20100211,SMAN 4 JAKARTA,JL. BATU NO. 3 GAMBIR,Prop. D.K.I. Jakarta,SMA,-6.1788,106.8356
20101314,SMA LAMAHOLOT,JL. JAGUNG RAYA BOJONG INDAH,Prop. D.K.I. Jakarta,SMA,-6.1634,106.7369
20103312,SMAN 51 JAKARTA,JL. BATU AMPAR 3 CONDET,Prop. D.K.I. Jakarta,SMA,-6.2767,106.8614
20107232,SMA ACS JAKARTA,JL. BANTAR JATI SETU,Prop. D.K.I. Jakarta,SMA,-6.3115,106.9209
20101334,SMAS BUDI MURNI 2,JL. PURI KEMBANGAN NO. 2,Prop. D.K.I. Jakarta,SMA,-6.1842,106.7561
20101619,SMAS 1 YADIKA,JL. TANJUNG DUREN BARAT IV/8,Prop. D.K.I. Jakarta,SMA,-6.178,106.7817
20101588,SMAN 78 JAKARTA,JL. BHAKTI IV/1 KOMP. PAJAK,Prop. D.K.I. Jakarta,SMA,-6.1914,106.7828
69874086,SMA PELITA HARAPAN INTERNASIONAL,JL. PANGERAN ANTASARI NO. 36,Prop. D.K.I. Jakarta,SMA,-6.249911,106.831545
20100599,SMAS GANDHI ANCOL,JL. PANGANDARAN IX BLOK B4 No. 1,Prop. D.K.I. Jakarta,SMA,-6.1272,106.8368
20100188,SMAS KRISTEN BETHEL JAKARTA,JL. PETAMBURAN IV NO.4,Prop. D.K.I. Jakarta,SMA,-6.1964,106.8058
20103182,SMAS PGRI 4 JAKARTA,JL. RAYA CIPAYUNG,Prop. D.K.I. Jakarta,SMA,-6.3324,106.8921
20107334,SMA TARAKANITA 1 JAKARTA,JL. PULO RAYA IV NO 17,Prop. D.K.I. Jakarta,SMA,-6.2461,106.8121
20103195,SMAS SAPTA KHARISMA JAKARTA,JL. RAYA PULO GEBANG NO. 99,Prop. D.K.I. Jakarta,SMA,-6.1942,106.9561
NA,Jakarta Taipei School,Jl. Raya Kelapa Hybrida Blok QH Kelapa Gading Permai,Prop. D.K.I. Jakarta,SMA,-6.170991,106.9089096
20103191,SMAS TRISOKO JAKARTA,JL. RAYA PONDOK GEDE DUKUH II/IV,Prop. D.K.I. Jakarta,SMA,-6.2684,106.8607
20101627,SMAN 101 JAKARTA,JL. KOMPLEK JOGLO BARU,Prop. D.K.I. Jakarta,SMA,-6.2175,106.7205
20107315,SMAS MUHAMMADIYAH 18 JAKARTA,JL. PANJANG CIPULIR RT. 008/009,Prop. D.K.I. Jakarta,SMA,-6.2345,106.7717
20103310,SMAN 54 JAKARTA,KOMPLEK PENDIDIKAN RAWA BUNGA JLNJATI NEGARA TIMUR IV JAKARTA TIMUR,Prop. D.K.I. Jakarta,SMA,-6.2214,106.8705
20103279,SMAN 9 JAKARTA,"JL. SMU 9  HALIM PERDANA KUSUMA,JAKARTA TIMUR",Prop. D.K.I. Jakarta,SMA,-6.2587,106.8815
20103429,SMAS ADI LUHUR JAKARTA,JL. RAYA CONDET  NO. 4,Prop. D.K.I. Jakarta,SMA,-6.293,106.8557
20107385,SMAS LAPHAT PLUS,JL. BAYANGKARA NO. 47,Prop. D.K.I. Jakarta,SMA,-6.1319,106.9132
20112406,SMAS PLUS KHADIJAH,JL. BATAN I NO.12 PASAR JUMAT RT 005 RW 02,Prop. D.K.I. Jakarta,SMA,-6.3103,106.799
20102212,SMAN 38 JAKARTA,JL. RAYA LENTENG AGUNG,Prop. D.K.I. Jakarta,SMA,-6.336,106.836
20107269,SMAS AL CHASANAH,JL. TANJUNG DUREN BARAT 3/1,Prop. D.K.I. Jakarta,SMA,-6.1742,106.7799
20103293,SMAN 102 JAKARTA,"JL. KAYU TINGGI,CAKUNG JAKARTA TIMUR",Prop. D.K.I. Jakarta,SMA,-6.1671,106.9506
20103426,SMAS ANGKASA 1 H PERDANAKUSUMA,JL. TRIKORA RAYA,Prop. D.K.I. Jakarta,SMA,-6.2502,106.8823
69883506,SMA GARUDA CENDEKIA,JL. BANGKA VII DALAM NO 14,Prop. D.K.I. Jakarta,SMA,-6.25665,106.818219
20104434,SMAS NASIONAL NUSANTARA,JL. CENDRAWASIH 2 NO. 1,Prop. D.K.I. Jakarta,SMA,-6.145,106.7282
20101608,SMAS TRI RATNA,JL. TALIB I NO. 35-37,Prop. D.K.I. Jakarta,SMA,-6.1585,106.8152
20100812,SMAN 45 JAKARTA,JL. PERINTIS KEMERDEKAAN,Prop. D.K.I. Jakarta,SMA,-6.1746,106.9056
20107297,SMAS FATAHILLAH JAKARTA,JL. RAYA BUNCIT NO.67,Prop. D.K.I. Jakarta,SMA,-6.2741,106.8319
20101631,SMAS SANTO ANDREAS,KOMP GREEN GARDEN J 5 N0 1,Prop. D.K.I. Jakarta,SMA,-6.1889,106.7583
20101348,SMAS ISLAM TAMBORA,JL. TAMBORA MESJID NO. 11,Prop. D.K.I. Jakarta,SMA,-6.1453,106.81
20107325,SMAS PERG CIKINI JAKARTA,JL. DUREN TIGA RAYA,Prop. D.K.I. Jakarta,SMA,-6.2527,106.8333
20103192,SMA TELADAN 1 JAKARTA,JL. MADRASAH  NO.49,Prop. D.K.I. Jakarta,SMA,-6.3182,106.8966
69935208,SMA ISLAM AL JABR,JL. BANGO II NO. 30 - 38 RT 006/03,Prop. D.K.I. Jakarta,SMA,-6.307288,106.793035
69948476,SMA PERGURUAN ADVENT XV ,Jl. Pembaharuan Kelapa Dua Wetan,Prop. D.K.I. Jakarta,SMA,-6.3471551,106.8813849
20102574,SMAN 6 JAKARTA,Jl. Mahakam I Blok C No. 2,Prop. D.K.I. Jakarta,SMA,-6.2429,106.7975
20104419,SMAS KRISTEN TIARA KASIH,JL.DARMA RAYA BLOK C1 TSI,Prop. D.K.I. Jakarta,SMA,-6.1642,106.7248
20104416,SMAS IMPIAN BUNDA,JL. FLAMBOYAN UTAMA III B C7 NO.1 A,Prop. D.K.I. Jakarta,SMA,-6.1558,106.7176
20101587,SMAN 84 JAKARTA,JL. PETA BARAT NO. 42,Prop. D.K.I. Jakarta,SMA,-6.1449,106.7044
20101605,SMAN 56 JAKARTA,JL. RAYA KAMAL,Prop. D.K.I. Jakarta,SMA,-6.1199,106.72
69774557,SMAS SPRINGFIELD,JL. PULAU SELAYAR BLOK B 1 NO 1,Prop. D.K.I. Jakarta,SMA,-6.1754,106.7384
20100224,SMAN 30 JAKARTA,JL. JEND. A. YANI,Prop. D.K.I. Jakarta,SMA,-6.1869,106.8749
20107322,SMAS PANGUDI LUHUR JAKARTA,JL. BRAWIJAYA IV NO. 47,Prop. D.K.I. Jakarta,SMA,-6.2536,106.8064
20107292,SMAS DARUNNAJAH,JL.ULUJAMI RAYA NO. 86,Prop. D.K.I. Jakarta,SMA,-6.2474,106.7623
69754377,SMAS NARADA,Perumahan Kosambi Baru Blok A Ext. 1,Prop. D.K.I. Jakarta,SMA,-6.171958,106.715741
20102217,SMAN 29 JAKARTA,Jl. Kramat No.6,Prop. D.K.I. Jakarta,SMA,-6.2372,106.784
20103290,SMAN 105 JAKARTA,Jln. Usman Kelapa Dua Wetan,Prop. D.K.I. Jakarta,SMA,-6.3316,106.8837
20102230,SMAN 108 JAKARTA,"Jl. Kesadaran, Ulujami Raya",Prop. D.K.I. Jakarta,SMA,-6.2527,106.7619
20107306,SMAS ISLAM AL-AZHAR 3 JAKARTA,JL. SISINGAMANGARAJA,Prop. D.K.I. Jakarta,SMA,-6.2339,106.8001
20100223,SMAN 27 JAKARTA,JL. MARDANI RAYA JAKARTA,Prop. D.K.I. Jakarta,SMA,-6.182,106.8612
20103179,SMAS MUHAMMADIYAH 4 JAKARTA,JL. DEWI SARTIKA 316 A,Prop. D.K.I. Jakarta,SMA,-6.2494,106.8662
20107305,SMA ISLAM AL-AZHAR 2 JAKARTA,JALAN SIAGA RAYA,Prop. D.K.I. Jakarta,SMA,-6.2973,106.835
20109971,SMAS CINTA KASIH TZU CHI,JL.KAMAL RAYA OUTER RING ROAD NO.20,Prop. D.K.I. Jakarta,SMA,-6.1317,106.7379
20103314,SMAN 48 JAKARTA,JL. PINANG RANTI II TMII,Prop. D.K.I. Jakarta,SMA,-6.2877,106.8831
20108498,SMAS ADVENT 1 JAKARTA,JL. KRAMAT PULO NO. 16,Prop. D.K.I. Jakarta,SMA,-6.1792,106.8438
69889003,SMA NEW ZEALAND INDEPENDENT SCHOOL,JL. KEMANG RAYA NO 70,Prop. D.K.I. Jakarta,SMA,-6.263891,106.818267
20107368,SMAS AL KHAIRIYAH JAKARTA,JL. MINDI NO. 2,Prop. D.K.I. Jakarta,SMA,-6.1154,106.9142
20102219,SMAN 109 JAKARTA,JL. GARDU NO. 31,Prop. D.K.I. Jakarta,SMA,-6.345,106.8356
20100197,SMAS TARSISIUS 1 JAKARTA,JL. KH. HASYIM ASHARI 26,Prop. D.K.I. Jakarta,SMA,-6.1645,106.8152
20100810,SMAN 40 JAKARTA,JL. BUDIMULYA RAYA,Prop. D.K.I. Jakarta,SMA,-6.1312,106.8311
20101611,SMAS SENTOSA,JL. MADU NO. 276,Prop. D.K.I. Jakarta,SMA,-6.1439,106.8203
20103296,SMAN 39 JAKARTA,JL. RA FADILAH CIJANTUNG,Prop. D.K.I. Jakarta,SMA,-6.3209,106.8501
20100604,SMA MAHATMA GADING,Jl. Boulevard BGR Komplek Villa Gading Indah Blok D,Prop. D.K.I. Jakarta,SMA,-6.1613,106.8943
69762654,SMAS DJUWITA,"Perum. Puri Gardena, Jl. Gardena Utama raya",Prop. D.K.I. Jakarta,SMA,-6.138357,106.70172
69829193,SMA KRISTEN KASIH KEMULIAAN,JL. PERUM TAMAN SURYA V BLOK RR NO 1,Prop. D.K.I. Jakarta,SMA,-6.161439,106.707748
20100605,SMAS METHODIST JAKARTA,JL. BANDENGAN UTARA NO. 91A,Prop. D.K.I. Jakarta,SMA,-6.1364,106.7865
20101354,SMAS FAJRUL ISLAM,JL. TANJUNG PURA V,Prop. D.K.I. Jakarta,SMA,-6.1293,106.6952
20107312,SMAS KHARISMAWITA JAKARTA,JL. SWADAYA 02 NO. 30,Prop. D.K.I. Jakarta,SMA,-6.2997,106.846
20104433,SMAS MUHAMMADIYAH 15,JL. ANGGREK NELI MURNI BC,Prop. D.K.I. Jakarta,SMA,-6.187,106.7954
20103202,SMAS MUHAMMADIYAH 11 JAKARTA,JL. BALAI PUSTAKA  BARAT NO. 2,Prop. D.K.I. Jakarta,SMA,-6.1974,106.8827
20100780,SMAN 80 JAKARTA,JL. SUNTER KARYA SELATAN V,Prop. D.K.I. Jakarta,SMA,-6.1423,106.8715
20101620,SMAN 33 JAKARTA,JL. UTAMA I NO.2 CENGKARENG,Prop. D.K.I. Jakarta,SMA,-6.1493,106.7274
20107304,SMAS ISLAM AL-AZHAR 1 JAKARTA,JL. SISINGAMANGARAJA,Prop. D.K.I. Jakarta,SMA,-6.234128,106.800273
20107187,SMAS AL FALAH,Jl Raya Malaka No. 1D Munjul Cipayung,Prop. D.K.I. Jakarta,SMA,-6.3469,106.8845
20101343,SMAS DHAMASAVANA,JL. JEMBATAN II PADAMULYA VI / 176B,Prop. D.K.I. Jakarta,SMA,-6.1448,106.7914
20103292,SMAN 103 JAKARTA,JL. MAWAR MERAH VI PERUMNAS KLENDER,Prop. D.K.I. Jakarta,SMA,-6.2209,106.9373
20101618,SMAS VIANNEY,JL. Bojong Raya  No. 98,Prop. D.K.I. Jakarta,SMA,-6.1711,106.7301
NA,SMA CIKAL AMRI,Jl. Raya Setu No. 3,Prop. D.K.I. Jakarta,SMA,-6.3116541,106.9196799
20101610,SMAS  TARSISIUS II,JL. BATUSARI RAYA NO. 12,Prop. D.K.I. Jakarta,SMA,-6.1994,106.7824
20107308,SMAS KARTIKA X-1,JL. RAYA KODAM BINTARO NO. 53,Prop. D.K.I. Jakarta,SMA,-6.2604,106.7587
20107281,SMAS BAKTI MULYA 400,JL.LINGKAR SELATAN,Prop. D.K.I. Jakarta,SMA,-6.2835,106.7735
20101585,SMAN 94 JAKARTA,JL. RAYA SEMANAN,Prop. D.K.I. Jakarta,SMA,-6.1639,106.6898
20107338,SMAS YAPERJASA,"Jl. Belimbing, RT. 08/07",Prop. D.K.I. Jakarta,SMA,-6.3327,106.8236
20103186,SMAS WIDYA MANGGALA JAKARTA,JL. MUJAHIDIN NO. 17,Prop. D.K.I. Jakarta,SMA,-6.3032,106.8725
69853555,SMA JAKARTA INTERNATIONAL SCHOOL,JALAN TEROGONG RAYA NO 33,Prop. D.K.I. Jakarta,SMA,-6.286521,106.788462
20104409,SMAS CAHAYA FADILAH,JL. LINGKAR LUAR BARAT NO.7 RT.013/007,Prop. D.K.I. Jakarta,SMA,-6.1753,106.7187
20112284,SMAS SEVILLA,JL. PULO MAS RAYA PULOMAS,Prop. D.K.I. Jakarta,SMA,-6.209,106.8565
20108499,SMAS DWISAKA JAKARTA,JL. TAMBAK NO. 32 JAKARTA,Prop. D.K.I. Jakarta,SMA,-6.2048,106.8492
20110335,SMAS KRISTEN 6 PENABUR,JL.MUARA KARANG BLOK Z 3 S,Prop. D.K.I. Jakarta,SMA,-6.1153,106.7745
20109561,SMA SIS PIK,JL. Mandara Indah No.4,Prop. D.K.I. Jakarta,SMA,-6.119424,106.759055
20177837,SMAS SAINT JOHNS SCHOOL,Jl.Taman Villa Meruya Blok D1 No.1,Prop. D.K.I. Jakarta,SMA,-6.2067,106.7371
20101173,SMAS 1 BARUNAWATI,JL. X -III AIPDA KS TUBUN II - III NO. 7,Prop. D.K.I. Jakarta,SMA,-6.1949,106.8012
20107330,SMAS SERUNI DON BOSCO,JL. TB. SIMATUPANG,Prop. D.K.I. Jakarta,SMA,-6.2908,106.7849
20100196,SMAS TAMAN MADYA 5 JAKARTA,JL. PERCETAKAN NEGARA VIII NO. 16,Prop. D.K.I. Jakarta,SMA,-6.1921,106.862
69921926,SMA ACG SCHOOL JAKARTA,Jl. Taman Margasatwa No. 19. Warung Jati Barat,Prop. D.K.I. Jakarta,SMA,-6.285063,106.830168
20103299,SMAN 89 JAKARTA,JL. KAYU TINGGI,Prop. D.K.I. Jakarta,SMA,-6.1752,106.9515
69931693,SMA KAIROS GRACIA,CITRA GARDEN 7 BLOK B1,Prop. D.K.I. Jakarta,SMA,-6.1536,106.6888
20100797,SMAN 52 JAKARTA,JL. RAYA TUGU SEMPER,Prop. D.K.I. Jakarta,SMA,-6.1223,106.9239
20107249,SMAS BUDI MULIA JAKARTA,JL. MANGGA BESAR RAYA 135,Prop. D.K.I. Jakarta,SMA,-6.1482,106.8282
20108507,SMAS SANTO BELLARMINUS JAKARTA,LOMBOK NO. 58 JAKARTA,Prop. D.K.I. Jakarta,SMA,-6.1886,106.8252
20103282,SMAN 22 JAKARTA,"JL. Kramat Asem, Kec. Matraman, Jakarta Timur 13120",Prop. D.K.I. Jakarta,SMA,-6.2026,106.8694
20107372,SMAS CHANDRA KUSUMA JAKARTA,JL. PERUM VILAMAS SELATAN I BLOK H 4 NO. 1,Prop. D.K.I. Jakarta,SMA,-6.1392,106.7707
20100179,SMAS SANTO PAULUS JAKARTA,JL. SETIA KAWAN RAYA 39-41,Prop. D.K.I. Jakarta,SMA,-6.1643,106.8015
20101604,SMAN 57 JAKARTA,JL. RAYA KEDOYA,Prop. D.K.I. Jakarta,SMA,-6.1747,106.7561
20100613,SMAS TARAKANITA 2,JL. PLUIT PERMAI DALAM I / 10,Prop. D.K.I. Jakarta,SMA,-6.1143,106.7915
20100217,SMAN 10 JAKARTA,JL. MANGGA BESAR XIII,Prop. D.K.I. Jakarta,SMA,-6.1467,106.8265
20107383,SMAS KRISTEN IPEKA SUNTER,"JL. BARU SUNTER AGUNG RT.15, RW.07, SUNTER AGUNG-JAKARTA UTARA 14350",Prop. D.K.I. Jakarta,SMA,-6.1542,106.871
20112435,SMAS SINAR DHARMA,JL. KH. MOH. MANSYUR NO.29,Prop. D.K.I. Jakarta,SMA,-6.1493,106.8075
20100195,SMAS MUHAMMADIYAH 1 JAKARTA,JL. KRAMAT RAYA NO. 49,Prop. D.K.I. Jakarta,SMA,-6.188,106.8461
20107378,SMAS HARAPAN KASIH JAKARTA,JL. MUARA BARU RAYA 5-7,Prop. D.K.I. Jakarta,SMA,-6.1299,106.7973
20101586,SMAN 85 JAKARTA,JL. SRENGSENG RAYA,Prop. D.K.I. Jakarta,SMA,-6.2154,106.7591
20108501,SMAS HATI SUCI,JL. HATI SUCI NO. 2,Prop. D.K.I. Jakarta,SMA,-6.1835,106.8174
20107371,SMAS CAHAYA KUDUS JAKARTA,JL.  MUARA KARANG B IX NO. 129,Prop. D.K.I. Jakarta,SMA,-6.1172,106.7815
20107373,SMAS DHARMA PUTRA JAKARTA,JL. SWASEMBADA BARAT XI NO.92,Prop. D.K.I. Jakarta,SMA,-6.1226,106.8873
20104426,SMAS 2 KRISTEN KALAM KUDUS,JL. KOSAMBI BARU BLOK F6/1,Prop. D.K.I. Jakarta,SMA,-6.1714,106.716
20101324,SMAS NOTRE DAME,"JL. PURI KEMBANG BARAT RAYA, BLOK M",Prop. D.K.I. Jakarta,SMA,-6.1881,106.7425
20102575,SMAN 55 JAKARTA,JL. MINYAK  RAYA DUREN TIGA,Prop. D.K.I. Jakarta,SMA,-6.2554,106.8391
NA,SMA JAC,Jl. Pegangsaan Dua Rt 003 Rw 003,Prop. D.K.I. Jakarta,SMA,-6.1596702,106.8930039
20107199,SMAS PRATAMA,JL.USMAN NO. 71,Prop. D.K.I. Jakarta,SMA,-6.3324,106.8836
20103166,SMAS PERGURUAN RAKYAT 2 JAKARTA,JL. AD. LAMPIRI RAYA,Prop. D.K.I. Jakarta,SMA,-6.253,106.9407
20100631,SMAS KATOLIK DIAKONIA JAKARTA,JL. RAYA PLUIT UTARA RAYA NO. 2,Prop. D.K.I. Jakarta,SMA,-6.1121,106.7894
20100189,SMAS KRISTEN KANAAN JAKARTA,JL. KRAN RAYA NO. 7,Prop. D.K.I. Jakarta,SMA,-6.1597,106.8463
20107185,SMAN 69 JAKARTA,PULAU PRAMUKA RT 003/05,Prop. D.K.I. Jakarta,SMA,-5.747632,106.6134864
20109062,SMAS MUTIARA BANGSA 3,Jelambar Barat III No. 5B,Prop. D.K.I. Jakarta,SMA,-6.1498,106.7873
20104425,SMAS KRISTEN IMANUEL,JL. ALAMANAH RAYA N0 145  A JELAMBAR,Prop. D.K.I. Jakarta,SMA,-6.1605,106.7797
20103256,SMAN 99 JAKARTA,JL.Cibubur  II,Prop. D.K.I. Jakarta,SMA,-6.3425,106.8729
20107291,SMAS DARUL MAARIF JAKARTA,JL. RS. FATMAWATI NO.45,Prop. D.K.I. Jakarta,SMA,-6.2674,106.798
20100799,SMAS SANTO YAKOBUS JAKARTA,JL. PEGANGSAAN DUA KM. 3.5,Prop. D.K.I. Jakarta,SMA,-6.1535,106.9158
20107293,SMAS DELIMA,JL. BANGKA XI / 9B,Prop. D.K.I. Jakarta,SMA,-6.2515,106.826
20103286,SMAN 113 JAKARTA,JL. ALBAIDHO I/MONUMEN LUBANG BUAYA JAKARTA TIMUR,Prop. D.K.I. Jakarta,SMA,-6.2929,106.903
20102570,SMAN 70 JAKARTA,JL. BULUNGAN BLOK C / 1,Prop. D.K.I. Jakarta,SMA,-6.2417,106.797
20102573,SMAN 60 JAKARTA,JL. KEMANG TIMUR I NO. 6,Prop. D.K.I. Jakarta,SMA,-6.2589,106.825
20103174,SMAS PELITA TIGA NO 3 JAKARTA,JL. RAWAJAYA I,Prop. D.K.I. Jakarta,SMA,-6.2043,106.8742
69888992,SMA BUNDA MULIA  SCHOOL,Jl. Lodan Raya No.2,Prop. D.K.I. Jakarta,SMA,-6.1295,106.8194
20104437,SMAS PELITA KUDUS,JL. INDRALOKA RAYA NO. 33A,Prop. D.K.I. Jakarta,SMA,-6.1568,106.7765
20104414,SMAS DIAN KASIH,Perumahan Citra Garden 5 Blok H 1,Prop. D.K.I. Jakarta,SMA,-6.1312,106.6969
20100629,SMAS BUNGA HATI BANGSA,JL.VILA KAPUK INDAH  BLOK G / 1,Prop. D.K.I. Jakarta,SMA,-6.1325,106.7613
20100807,SMAN 15 JAKARTA,JL. AGUNG UTARA STS BLOK A,Prop. D.K.I. Jakarta,SMA,-6.1378,106.8617
20100601,SMAS KRISTEN 5 BPK PENABUR,JL. HIBRIDA RAYA BLOK QA3,Prop. D.K.I. Jakarta,SMA,-6.1482,106.9082
20103171,SMAS PGRI 24 JAKARTA,JL. SMPN 157,Prop. D.K.I. Jakarta,SMA,-6.2954,106.902
20103288,SMAN 107 JAKARTA,JL. RAWA BADUNG TIMUR CAKUNG,Prop. D.K.I. Jakarta,SMA,-6.2059,106.9253
20107279,SMAS ISLAM AS SYAFIIYAH 01 JAKARTA,JL. BUKIT DURI SELATAN NO. 29,Prop. D.K.I. Jakarta,SMA,-6.2202,106.8511
20103403,SMAS BINA DHARMA JAKARTA,JL. RAYA CIRACAS NO. 39,Prop. D.K.I. Jakarta,SMA,-6.3275,106.8847
20104436,SMAS PELITA IV,JL. POS DURI RAYA NO. 23-29,Prop. D.K.I. Jakarta,SMA,-6.1559,106.8019
20100175,SMAS ADVENT SALEMBA,JL. SALEMBA RAYA NO. 47,Prop. D.K.I. Jakarta,SMA,-6.1969,106.8515
20103200,SMAS PUSAKA 1 JAKARTA,JL. TARUNA PAHLAWAN REVOLUSI,Prop. D.K.I. Jakarta,SMA,-6.2387,106.8947
69923322,SMA Raffles Christian School Kebon Jeruk,Jl. Pasanggrahan Raya,Prop. D.K.I. Jakarta,SMA,-6.196155,106.738985
20101339,SMAS BAPTIS CENGKARENG INDAH,KOMPLEK PERUM CENGKARENG INDAH BLOK GB/01,Prop. D.K.I. Jakarta,SMA,-6.1438,106.7474
20107276,SMAS AL AZHAR SYIFA BUDI,JL. KEMANG RAYA 7,Prop. D.K.I. Jakarta,SMA,-6.2542,106.8112
20101306,SMAS 1 KRISTEN BPK PENABUR,JL. TANJUNG DUREN RAYA NO. 4,Prop. D.K.I. Jakarta,SMA,-6.1743,106.7813
20102214,SMAN 34 JAKARTA,Jl. Margasatwa Raya No. 1,Prop. D.K.I. Jakarta,SMA,-6.3134,106.7949
20100779,SMAN 75 JAKARTA,JL. TIPAR CAKUNG,Prop. D.K.I. Jakarta,SMA,-6.1347,106.924
20103307,SMAN 61 JAKARTA,JL.TARUNA PAHLAWAN REVOLUSI PONDOK BAMBU JAKARTA TIMUR,Prop. D.K.I. Jakarta,SMA,-6.2386,106.8963
20103213,SMAS BUDI MULIA UTAMA JAKARTA,RAWA JAYA NO. 5,Prop. D.K.I. Jakarta,SMA,-6.235,106.9438
20102218,SMAN 26 JAKARTA,JL. TEBET BARAT IV,Prop. D.K.I. Jakarta,SMA,-6.2334,106.8485
20100800,SMAS YASPI JAKARTA,JL. DINAS KEBERSIHAN DKI,Prop. D.K.I. Jakarta,SMA,-6.1337,106.9261
69879021,SMA SAINT PETER SCHOOL,JL.BOULEVARD TIMUR RAYA NO. 8,Prop. D.K.I. Jakarta,SMA,-6.17004,106.908698
20100218,SMAN 20 JAKARTA,JL. KREKOT BUNDER III/I,Prop. D.K.I. Jakarta,SMA,-6.1593,106.8324
20103316,SMAS BINA PANGUDI LUHUR JAKARTA,JL. KRAMAT ASEM RAYA NO. 54,Prop. D.K.I. Jakarta,SMA,-6.2035,106.8701
20103167,SMAS PERGURUAN RAKYAT 3 JAKARTA,JL. PAHLAWAN REVOLUSI NO. 12,Prop. D.K.I. Jakarta,SMA,-6.2288,106.8986
20101326,SMAS MUHAMMADIYAH 13 JAKARTA,JL. GELONG BARU NO. 23A,Prop. D.K.I. Jakarta,SMA,-6.1766,106.7972
20177804,SMAK PENABUR KELAPA GADING,JL. BOULEVARD BUKIT GADING RAYA KAV. A5-A8,Prop. D.K.I. Jakarta,SMA,-6.1477,106.908
20107340,SMAS YASPORBI 1 JAKARTA,"JL. DEPOSITO I KOMP. BANK INDONESIA, MENTENG DALAM, TEBET, JAKARTA SELATAN",Prop. D.K.I. Jakarta,SMA,-6.2394,106.8417
20101322,SMAS PELITA 2,JL. MACAN NO.23-29 DAAN MOGOT,Prop. D.K.I. Jakarta,SMA,-6.166,106.7719
20112282,SMAS CHARTAR BUANA,JL. PERUM CIBUBUR INDAH II,Prop. D.K.I. Jakarta,SMA,-6.338,106.8903
20103308,SMAN 59 JAKARTA,BULAK TIMUR I/10-11,Prop. D.K.I. Jakarta,SMA,-6.2161,106.9076
20107380,SMAS JUBILEE,JL Sunter Jaya I No.1,Prop. D.K.I. Jakarta,SMA,-6.144,106.8722
20100201,SMAN 77 JAKARTA,JL. CEMPAKA PUTIH TENGAH 17,Prop. D.K.I. Jakarta,SMA,-6.1753,106.8662
20103281,SMAN 31 JAKARTA,JL. KAYUMANIS TIMUR NO. 17,Prop. D.K.I. Jakarta,SMA,-6.2026,106.8645
20102216,SMAN 3 JAKARTA,SETIABUDI II,Prop. D.K.I. Jakarta,SMA,-6.2098,106.8258
20100187,SMAS KRISTEN 3 PENABUR JAKARTA,JL. GUNUNG SAHARI RAYA NO. 90 A,Prop. D.K.I. Jakarta,SMA,-6.169,106.84
20103203,SMAS DON BOSCO 2 JAKARTA,JL. PULO MAS BARAT V,Prop. D.K.I. Jakarta,SMA,-6.1748,106.8813
20103240,SMAS BPS&K I,Jl. Bina Karya No.2 Komplek Bina Marga I,Prop. D.K.I. Jakarta,SMA,-6.2334,106.9388
20112438,SMAS CITRA KASIH,CITRA GARDEN 5 BLOK H 3,Prop. D.K.I. Jakarta,SMA,-6.1358,106.702
20103257,SMAN 98 JAKARTA,JL.JAHA   NO. 1,Prop. D.K.I. Jakarta,SMA,-6.3324,106.8573
20102193,SMAN 47 JAKARTA,Jalan Delman Utama I RT.001/011,Prop. D.K.I. Jakarta,SMA,-6.2471,106.7731
20103224,SMAS KRISTEN BERKAT JAKARTA,JL. JATINEGARA TIMUR NO. 89,Prop. D.K.I. Jakarta,SMA,-6.222,106.8683
20102592,SMAN 49 JAKARTA,JL. PEPAYA NO. 9,Prop. D.K.I. Jakarta,SMA,-6.3237,106.8192
20107375,SMAS DHARMA SUCI JAKARTA,JL. JEMB 3 KOMP. PLUIT MAS BLOK F NO. 1-5,Prop. D.K.I. Jakarta,SMA,-6.1312,106.7752
69757184,SMAS KANAAN GLOBAL SCHOOL,"PERUMAHAN TAMAN SURYA 3, JL  BOULEVARD BLOK L2",Prop. D.K.I. Jakarta,SMA,-6.1349,106.7169
20108505,SMAS KRISTEN PEMBANGUNAN 2,JL. PEMBANGUNAN 2 NO. 18,Prop. D.K.I. Jakarta,SMA,-6.1627,106.8173
20102576,SMAN RAGUNAN JAKARTA,JL. KOMPLEK GOR RAGUNAN,Prop. D.K.I. Jakarta,SMA,-6.3054,106.8269
20107388,SMAS NUSANTARA JAKARTA,JL. KRAMAT JAYA GG. VIII,Prop. D.K.I. Jakarta,SMA,-6.1189,106.9204
20100806,SMAN 13 JAKARTA,JL. SEROJA NO.1 TANJUNG PRIOK,Prop. D.K.I. Jakarta,SMA,-6.1191,106.8946
20100182,SMAS MUHAMMADIYAH 2 JAKARTA,JL. GARUDA NO. 33,Prop. D.K.I. Jakarta,SMA,-6.1624,106.8423
20100180,SMAS SUNDA KELAPA JAKARTA,JL. TAMAN SUNDA KELAPA 16 A Menteng Jakarta Pusat 10310,Prop. D.K.I. Jakarta,SMA,-6.2011,106.8326
20107310,SMAS KELUARGA WIDURI JAKARTA,JL. GUNUNG BALONG I / 2,Prop. D.K.I. Jakarta,SMA,-6.3037,106.788
20103170,SMAS PGRI 10 JAKARTA,"JL. RAWA KUNING GANG MUSHOLLA AL IKHSAN, RT 3 , RW 2, NO 119",Prop. D.K.I. Jakarta,SMA,-6.1981,106.8658
20107327,SMAS PSKD 4 JAKARTA,JL. PANGLIMA POLIM 2 NO. 51A,Prop. D.K.I. Jakarta,SMA,-6.2472,106.8014
20104405,SMAS AL KAMAL,JL. AL -  KAMAL KEDOYA RAYA  NO. 2,Prop. D.K.I. Jakarta,SMA,-6.188,106.7559
20101302,SMAS 2 KRISTEN KETAPANG,JL. KOMP.  GREEN GARDEN BLOK M I,Prop. D.K.I. Jakarta,SMA,-6.1851,106.7558
20103285,SMAN 12 JAKARTA,JL. PERTANIAN KLENDER,Prop. D.K.I. Jakarta,SMA,-6.2147,106.8978
20100185,SMAS KARTINI 1 JAKARTA,JL. KALIBARU TIMUR V NO.1,Prop. D.K.I. Jakarta,SMA,-6.1658,106.8554
20107299,SMAS GONZAGA JAKARTA,JL. PEJATEN BARAT 10A,Prop. D.K.I. Jakarta,SMA,-6.2773,106.8226
20109513,SMAS HIGH SCOPE,JL. TB. SIMATUPANG NO. 8,Prop. D.K.I. Jakarta,SMA,-6.293,106.8043
20104427,SMAS KRISTEN KALAM KUDUS,JL.TANGKILIO TIMUR NO.48-49,Prop. D.K.I. Jakarta,SMA,-6.1429,106.8211
20103287,SMAN 11 JAKARTA,JL. P KOMARUDIN 1 PANDIDIKAN PULO GEBANG CAKUNG JAKARTA TIMUR,Prop. D.K.I. Jakarta,SMA,-6.2057,106.9403
20109491,SMAS ISLAM AL-MARUF,JL. RAYA LAPANGAN TEMBAK - CIBUBUR,Prop. D.K.I. Jakarta,SMA,-6.3416,106.8863
20107302,SMAS IS AVICENA,JL. MOC. KAHFI  II  NO.66,Prop. D.K.I. Jakarta,SMA,-6.3467,106.8154
20107309,SMAS KARTIKA VIII-1 JAKARTA,JL. SEROJA,Prop. D.K.I. Jakarta,SMA,-6.3414,106.8319
20104421,SMAS KATOLIK ABDI SISWA,JL. PATRA TOMANG RAYA NO. 1,Prop. D.K.I. Jakarta,SMA,-6.1744,106.7714
20101616,SMAS SANTO CRISTOFORUS 1,JL. RAHAYU NO. 1A,Prop. D.K.I. Jakarta,SMA,-6.1645,106.7848
20100212,SMAN 35 JAKARTA,JL. MUTIARA,Prop. D.K.I. Jakarta,SMA,-6.2093,106.8142
20107193,SMAS KATOLIK NUSA MELATI,JL. HANKAM NO. 6 CIPAYUNG,Prop. D.K.I. Jakarta,SMA,-6.3303,106.9041
20100219,SMAN 24 JAKARTA,JL. LAPANGAN TEMBAK NO. 1  SENAYAN,Prop. D.K.I. Jakarta,SMA,-6.2109,106.7964
20107300,SMAS HANG TUAH 1 JAKARTA,JL. CILEDUK RAYA KOMP. SESKOAL,Prop. D.K.I. Jakarta,SMA,-6.2394,106.7733
20101583,SMAN 96 JAKARTA,JL. JATI RAYA NO. 40,Prop. D.K.I. Jakarta,SMA,-6.147,106.7396
20107323,SMAS PATTIMURA JAKARTA,"Jl. Jagakarsa Raya No. 88, RT. 02/05",Prop. D.K.I. Jakarta,SMA,-6.3266,106.8192
20103197,SMAS ST ANTONIUS JAKARTA,JL. DI PANJAITAN KAV. 46,Prop. D.K.I. Jakarta,SMA,-6.2215,106.8739
20100483,SMAS PSKD 3 JAKARTA,JL. KWINI I NO. 1,Prop. D.K.I. Jakarta,SMA,-6.1806,106.8384
20103198,SMAS SANTIKA,JL. BAMBU WULUNG NO. 2,Prop. D.K.I. Jakarta,SMA,-6.3316,106.8934
20107314,SMA MUHAMMADIYAH 3 JAKARTA,JL. LIMAU 3 BLOK B,Prop. D.K.I. Jakarta,SMA,-6.248,106.7907
20107332,SMAS SUMBANGSIH JAKARTA,JL. AMPERA RAYA NO. 3-4,Prop. D.K.I. Jakarta,SMA,-6.2903,106.8174
20103303,SMAN 71 JAKARTA,JL. H. DOGOL,Prop. D.K.I. Jakarta,SMA,-6.2353,106.9187
20107589,SMAS GLOBAL ISLAMIC SCHOOL,JL. CONDET RAYA NO.5,Prop. D.K.I. Jakarta,SMA,-6.2824,106.8551
20100606,SMAS MUTIARA 1 JAKARTA,JL. KOMP. YOS SUDARSO II / 19,Prop. D.K.I. Jakarta,SMA,-6.1112,106.8926
69889089,SMA AUSTRALIAN INDEPENDENT SCHOOL INDONESIA JAKARTA,JL PEJATEN BARAT RAYA NO 69,Prop. D.K.I. Jakarta,SMA,-6.298536,106.828558
69917278,SMA MENTARI SCHOOL JAKARTA,Jl. H. Jian Rt. 004/03 No. 6,Prop. D.K.I. Jakarta,SMA,-6.260316,106.806106
20101350,SMAS HARAPAN JAYA,JL. DAAN MOGOT KM. 13,Prop. D.K.I. Jakarta,SMA,-6.1538,106.7328
20102215,SMAN 32 JAKARTA,JL. PANJANG KOMP.SETNEG BARU CIDODOL,Prop. D.K.I. Jakarta,SMA,-6.2322,106.7744
20103176,SMAS PANGUDI RAHAYU,"JL. RAYA BOGOR KM 24,5",Prop. D.K.I. Jakarta,SMA,-6.3198,106.8642
20100801,SMAS YUSHA JAKARTA,JL. MAWAR LUAR NO. 1,Prop. D.K.I. Jakarta,SMA,-6.1194,106.9085
20107377,SMAS GITA KIRTI 2,JL. SUNTER JAYA IV NO. 2,Prop. D.K.I. Jakarta,SMA,-6.1558,106.8674
20100213,SMAS TRIWIBAWA JAKARTA,JL. RAJAWALI SELATAN I NO.30,Prop. D.K.I. Jakarta,SMA,-6.1464,106.8378
20107303,SMAS ISLAM HARAPAN IBU,Jl. H. Banan No. 1,Prop. D.K.I. Jakarta,SMA,-6.2729,106.774
20107393,SMAS STELLA MARIS JAKARTA,JL. LELE BLOK A1,Prop. D.K.I. Jakarta,SMA,-6.1311,106.7778
69948873,SMA LENTERA KASIH,Jl. Sunter Permai Raya No.8,Prop. D.K.I. Jakarta,SMA,-6.141225,106.874105
20101626,SMAN 112 JAKARTA,JL. SANGGRAHAN,Prop. D.K.I. Jakarta,SMA,-6.1911,106.7565
20100610,SMAS PUSAKA ABADI JAKARTA,JL. V NO. 28 TELUK GONG,Prop. D.K.I. Jakarta,SMA,-6.1393,106.785
69896714,"SMA SINGAPORE SCHOOL, BONA VISTA","Jl. Bona Vista Raya, Lebak Bulus Jakarta Selatan 12440",Prop. D.K.I. Jakarta,SMA,-6.3006,106.7847
20107590,SMAS TRAMPIL 1 JAKARTA,JL. CILILITAN BESAR,Prop. D.K.I. Jakarta,SMA,-6.263,106.8738
20100796,SMAN 72 JAKARTA,JL. PRIHATIN KOMP  TNI AL,Prop. D.K.I. Jakarta,SMA,-6.1635,106.8846
20100616,SMAS DON BOSCO 1 JAKARTA,JL. BOULEVARD TIMUR KELAPA GADING,Prop. D.K.I. Jakarta,SMA,-6.166,106.9134
20107284,SMA AL-KAUTSAR,JL. JEMBATAN SELATAN NO. 6 BLOK A,Prop. D.K.I. Jakarta,SMA,-6.263,106.8026
20103297,SMAN 42 JAKARTA,JL. RAJAWALI HALIM PERDANA KUSUMA JAKARTA TIMUR,Prop. D.K.I. Jakarta,SMA,-6.2559,106.8912
20103206,SMAS DIAN PERSADA JAKARTA,JL. CIPINANG BARU I NO 21,Prop. D.K.I. Jakarta,SMA,-6.2009,106.9546
20107391,SMAS SANTO LUKAS 1 JAKARTA,JL ANCOL SELATAN II/ NO 1,Prop. D.K.I. Jakarta,SMA,-6.1306,106.8583
20100190,SMAS KRISTEN KARUNIA JAKARTA,JL. KARTINI RAYA NO. 10 A,Prop. D.K.I. Jakarta,SMA,-6.1583,106.8362
20103309,SMAN 58 JAKARTA,JL. RAYA CIRACAS NO. 2,Prop. D.K.I. Jakarta,SMA,-6.3282,106.8775
20103311,SMAN 53 JAKARTA,JL. CIPINANG JAYA II B,Prop. D.K.I. Jakarta,SMA,-6.2208,106.8835
20101613,SMAS 2 SANTO LEO,JL. KOSAMBI BARU SELATAN RAYA 1,Prop. D.K.I. Jakarta,SMA,-6.1738,106.7154
20102210,SMAN 46 JAKARTA,JL. MASJID DARUSSALAM,Prop. D.K.I. Jakarta,SMA,-6.2579,106.7948
20107295,SMAS DHARMA KARYA JAKARTA,JL. MELAWAI XII NO. 2 KAV. 207A,Prop. D.K.I. Jakarta,SMA,-6.2472,106.7999
20107367,SMAS AL JIHAD JAKARTA,JL. JIHAD PAPANGGO I,Prop. D.K.I. Jakarta,SMA,-6.1301,106.8819
20103305,SMAN 64 JAKARTA,JL. RAYA CIPAYUNG,Prop. D.K.I. Jakarta,SMA,-6.331,106.8906
20101615,SMAS 2 SANTO KRISTOFORUS,PERUM TAMAN PALEM LESTARI BLOK A-18,Prop. D.K.I. Jakarta,SMA,-6.1349,106.7246
20101621,SMAN 23 JAKARTA,JL. MANDALA UTARA NO.6,Prop. D.K.I. Jakarta,SMA,-6.1718,106.7994
20107290,SMAS CITA BUANA,JL. PASO 84,Prop. D.K.I. Jakarta,SMA,-6.3158,106.8148
20100174,SMAS PERGURUAN NASIONAL JAKARTA,JL. CEMPAKA BARU TIMUR I NO. 1,Prop. D.K.I. Jakarta,SMA,-6.1696,106.8623
20103301,SMAN 81 JAKARTA,JL. KARTIKA EKAPAKSI KPAD JATIWARINGI KALIMALANG JAKARTA TIMUR,Prop. D.K.I. Jakarta,SMA,-6.2511,106.9179
20101313,SMAS KRISTEN SAMARIA KUDUS,JL RAYA MERUYA UTARA N0 17,Prop. D.K.I. Jakarta,SMA,-6.1969,106.7544
20107286,SMAS BUDI WALUYO JAKARTA,JL. CISANGGIRI 3/15,Prop. D.K.I. Jakarta,SMA,-6.2415,106.8128
20100221,SMAN 25 JAKARTA,JL. AM. SANGAJI NO. 22-24,Prop. D.K.I. Jakarta,SMA,-6.1674,106.8139
20100612,SMAS KRISTEN SAINT NICHOLAS,JL. PANTAI INDAH UTARA  BLOK S  NO. 8 PIK JAKARTA UTARA,Prop. D.K.I. Jakarta,SMA,-6.1399,106.7758
20101628,SMAS YP BDN,JL. DAAN MOGOT KOMP. BANK MANDIRI PESING,Prop. D.K.I. Jakarta,SMA,-6.1578,106.7714
20103180,SMAS MUHAMMADIYAH 23 JAKARTA,JL. DELIMA II BLOK C PERUMNAS,Prop. D.K.I. Jakarta,SMA,-6.2193,106.9287
20104432,SMAS KATOLIK SANG TIMUR,JL. KARMEL RAYA NO. 2,Prop. D.K.I. Jakarta,SMA,-6.1901,106.78
20101630,SMAS 2 YADIKA,JL. KAMAL RAYA NO. 42,Prop. D.K.I. Jakarta,SMA,-6.123,106.7223
20107313,SMA LABSCHOOL KEBAYORAN,JL. KH. AHMAD DAHLAN NO. 14,Prop. D.K.I. Jakarta,SMA,-6.2451,106.7915
69948835,SMA HIGHFIELD,Jl. Raya Rawa Domba No.88,Prop. D.K.I. Jakarta,SMA,-6.2246085,106.9172197
20100193,SMAS  PERGURUAN KSATRYA,JL. PERCETAKAN NEGARA,Prop. D.K.I. Jakarta,SMA,-6.1866,106.8671
20100214,SMAS YAPERMAS JAKARTA,JL. ANYER NO. 7 JAKARTA,Prop. D.K.I. Jakarta,SMA,-6.2026,106.8439
20102566,SMAN 82 JAKARTA,JL. DAHA II / 15A,Prop. D.K.I. Jakarta,SMA,-6.2312,106.7996
20103189,SMAS USWATUN HASANAH JAKARTA,JL. DEPNAKER NO. 2,Prop. D.K.I. Jakarta,SMA,-6.2852,106.8822
69955414,SMA EMIISc Jakarta,Jl. Raya Condet Kav. 7 No 27 Rt 001/003,Prop. D.K.I. Jakarta,SMA,-6.277,106.8558
20107591,SMAS TRAMPIL 2 JAKARTA,JL. OLAHRAGA 2,Prop. D.K.I. Jakarta,SMA,-6.2677,106.8613
20103280,SMAN 36 JAKARTA,JL. PERHUBUNGAN RAYA RAWAMANGUN,Prop. D.K.I. Jakarta,SMA,-6.199,106.8991
20103304,SMAN 67 JAKARTA,JL. SQUADRON,Prop. D.K.I. Jakarta,SMA,-6.276,106.8871
20107336,SMAS TRIGUNA JAKARTA,JL. HANG LEKIU 3/17,Prop. D.K.I. Jakarta,SMA,-6.2344,106.7954
20100486,SMAS BUNDA MULIA JAKARTA,JL. AM. SANGAJI NO. 20,Prop. D.K.I. Jakarta,SMA,-6.1635,106.8125
20101629,SMAS 5 YADIKA,JL. JOGLO RAYA NO. 190,Prop. D.K.I. Jakarta,SMA,-6.1883,106.7259
20107317,SMAS MUHAMMADIYAH 5 JAKARTA,JL. TEBET TIMUR RAYA 565,Prop. D.K.I. Jakarta,SMA,-6.2101,106.851
20101311,SMAS KATOLIK RICCI,JL. KEMENANGAN 3 NO. 47,Prop. D.K.I. Jakarta,SMA,-6.1426,106.812
20104439,SMAS TUNAS MUDA,JL.MERUYA UTARA  NO.71,Prop. D.K.I. Jakarta,SMA,-6.1934,106.756
20112433,SMAS JAKARTA ISLAMIC SCHOOL,JL. MANUNGGAL I KOMP. KODAM NO.17,Prop. D.K.I. Jakarta,SMA,-6.2607,106.9106
20112462,SMA BINA BANGSA SCHOOL PANTAI INDAH KAPUK,Walet Elok 8 Blok R8 No.1 Pantai Indah Kapuk,Prop. D.K.I. Jakarta,SMA,-6.130455,106.76576
20101352,SMAS 3 GALATIA,JL. BAMBU LARANGAN NO.57,Prop. D.K.I. Jakarta,SMA,-6.1409,106.7169
20100614,SMAS FONS VITAE 2 JAKARTA,JL. KRAMAT JAYA 1B,Prop. D.K.I. Jakarta,SMA,-6.1116,106.9164
20104422,SMAS KATHOLIK BINTANG KEJORA,JL. TAMAN CENGKARENG INDAH,Prop. D.K.I. Jakarta,SMA,-6.1515,106.7365
20103300,SMAN 88 JAKARTA,JL. SAWO,Prop. D.K.I. Jakarta,SMA,-6.3278,106.847
20108502,SMAS ISLAM SAID NA UM JAKARTA,JL. K.H. MAS MANSYUR NO. 25,Prop. D.K.I. Jakarta,SMA,-6.1915,106.8162
20109524,SMA PERGURUAN RAKYAT 1 JAKARTA,Jl. Yon Zikon 14,Prop. D.K.I. Jakarta,SMA,-6.3448,106.8263
20101323,SMAS PADINDI,JL. PREPEDAN  RT12 RW9 N0 38,Prop. D.K.I. Jakarta,SMA,-6.1164,106.7072
20100805,SMAN 115 JAKARTA,JL. ROROTAN X,Prop. D.K.I. Jakarta,SMA,-6.1511,106.9569
20104408,SMA BINA BANGSA SCHOOL,JL. ARJUNA SELATAN KAV. 87,Prop. D.K.I. Jakarta,SMA,-6.1861,106.7813
69904250,SMA Raffles Christian School Pondok Indah,Jl. Gedung Hijau Raya 1 No. 1,Prop. D.K.I. Jakarta,SMA,-6.265339,106.775481
20107376,SMAS GIDEON JAKARTA,JL. GADANG NO. 77,Prop. D.K.I. Jakarta,SMA,-6.1276,106.8841
20107386,SMAS KRISTEN MAWAR SARON,JL. HIBRIDA TIMUR RAYA,Prop. D.K.I. Jakarta,SMA,-6.1636,106.9199
20102572,SMAN 63 JAKARTA,JL. AMD V MANUNGGAL V/57,Prop. D.K.I. Jakarta,SMA,-6.2287,106.749
20100194,SMA MAHATMA GANDHI SCHOOL,JL. TABING BLOK B -16 NO. 3,Prop. D.K.I. Jakarta,SMA,-6.1539,106.8403
20107369,SMAS AL MUHAJIRIN JAKARTA,JL.TUNDA NO 20-21,Prop. D.K.I. Jakarta,SMA,-6.1463,106.9065
20101346,SMAS KRISTEN PANCARAN BERKAT,JL. SETIA JAYA RAYA NO. 100,Prop. D.K.I. Jakarta,SMA,-6.1495,106.7896
20107194,SMAS NAHDLATUL WATHAN,JL.RAYA PENGGILINGAN,Prop. D.K.I. Jakarta,SMA,-6.2088,106.9372
20103169,SMAS PGRI 1 JAKARTA,JL. CIPINANG MUARA 1,Prop. D.K.I. Jakarta,SMA,-6.2284,106.8962
20102569,SMAN 74 JAKARTA,Jl. Dharma Putra XI,Prop. D.K.I. Jakarta,SMA,-6.252986,106.786393
20104412,SMAS DHARMA JAYA,JL. KAV. POLRI BLOK D. XV/1,Prop. D.K.I. Jakarta,SMA,-6.156,106.7859
20109560,SMA SIS KELAPA GADING,JL. Pegangsaan Dua No. 83,Prop. D.K.I. Jakarta,SMA,-6.168133,106.91307
20101589,SMAN 65 JAKARTA,Jalan Raya Panjang,Prop. D.K.I. Jakarta,SMA,-6.2007,106.7687
20100782,SMAN 92 JAKARTA,KOMP. PEMADAM KEBAKARAN,Prop. D.K.I. Jakarta,SMA,-6.1303,106.9284
20103283,SMAN 21 JAKARTA,JL. TANAH MAS RAYA NO.1,Prop. D.K.I. Jakarta,SMA,-6.1853,106.8875
20103431,SMAS CAWANG 1 BARU JAKARTA,JL. CAWANG BARU NO.543,Prop. D.K.I. Jakarta,SMA,-6.2426,106.8704
20101349,SMAS IP YAKIN,JL. BANGUN NUSA RAYA NO. 10,Prop. D.K.I. Jakarta,SMA,-6.1514,106.7301
NA,SMA ICHTHUS,JL. HAJI BATONG 1-1A/JL. CARINGIN BARAT 1,Prop. D.K.I. Jakarta,SMA,-6.297489,106.802887
20102568,SMAN 8 JAKARTA,JL. TAMAN BUKIT DURI,Prop. D.K.I. Jakarta,SMA,-6.233,106.8552
20103178,SMAS NURUL HUDA JAKARTA,JL. TIPAR CAKUNG,Prop. D.K.I. Jakarta,SMA,-6.1744,106.9383
20100170,SMAS KANISIUS JAKARTA,JL. MENTENG RAYA 64 JAKARTA,Prop. D.K.I. Jakarta,SMA,-6.1855,106.8353
20100809,SMAN 18 JAKARTA,JL. WARAKAS 1 TANJUNG PRIOK,Prop. D.K.I. Jakarta,SMA,-6.122,106.8723
20100216,SMAN 1 JAKARTA,JL. BUDI UTOMO NO. 7,Prop. D.K.I. Jakarta,SMA,-6.1672,106.8373
20100628,SMAS BUDI AGUNG,JL. TERUSAN BANDENGAN UTARA,Prop. D.K.I. Jakarta,SMA,-6.1361,106.7965
20107395,SMAS TANJUNG PRIOK JAKARTA,JL. MANGGA NO. 40,Prop. D.K.I. Jakarta,SMA,-6.1147,106.9111
20103230,SMAS ISLAM PB SOEDIRMAN,JL. RAYA BOGOR KM 24,Prop. D.K.I. Jakarta,SMA,-6.3136,106.862
20103306,SMAN 62 JAKARTA,JL. RAYA BOGOR KM.20,Prop. D.K.I. Jakarta,SMA,-6.2851,106.8726
20107396,SMAS TRI DARMA BUDHIDAYA,JL. BIDARA RAYA GG. G NO.36,Prop. D.K.I. Jakarta,SMA,-6.1411,106.7903
69949830,SMA SAMPOERNA,Jl. Raya Pasar Minggu Kav. 16 Rt 007/02,Prop. D.K.I. Jakarta,SMA,-6.25162,106.848737
20100489,SMAS FRANSISKUS 1 JAKARTA,JL. KRAMAT RAYA NO. 67,Prop. D.K.I. Jakarta,SMA,-6.1879,106.8462
20103208,SMAS DEWI SARTIKA YBW JAKARTA,JL. KEBON NANAS UTARA II NO 23,Prop. D.K.I. Jakarta,SMA,-6.2306,106.8724
20101304,SMAS KRISTEN ALMASIH,JL. KUSUMA V BLOK E1/ NO 1 TAMAN DUTA MAS,Prop. D.K.I. Jakarta,SMA,-6.1638,106.7783
20107271,SMAS KEMURNIAN,JL. KEMURNIAN V/209,Prop. D.K.I. Jakarta,SMA,-6.1465,106.8132
20103302,SMAN 76 JAKARTA,JL. TIPAR CAKUNG JAKARTA TIMUR,Prop. D.K.I. Jakarta,SMA,-6.1722,106.9314
20101607,SMAS TRINITAS JAKARTA,JL. PAKIS RAYA BOJONG INDAH,Prop. D.K.I. Jakarta,SMA,-6.1656,106.7414
69930247,SMA D Royal Moroco Integrative Islamic School,Jl. H. Salim 3 No.7. Radio Dalam,Prop. D.K.I. Jakarta,SMA,-6.259136,106.790426
20107397,SMAS WIJAYA JAKARTA,JL. MASJID AL BARKAH NO. 16A,Prop. D.K.I. Jakarta,SMA,-6.1593,106.874
20103223,SMAS LABSCHOOL JAKARTA,JL. PEMUDA KOMPLEK UNJ,Prop. D.K.I. Jakarta,SMA,-6.1934,106.8807
20177806,SMA TARUNA PERSADA,JALAN MASJID NO 29,Prop. D.K.I. Jakarta,SMA,-6.2993,106.8579
20107251,SMAS UNIVERSAL,JL. RUAS D. 7 BLOK D 6 NO. 2,Prop. D.K.I. Jakarta,SMA,-6.1559,106.8539
20107285,SMAS BOROBUDUR JAKARTA,JL. RAYA CILANDAK KKO,Prop. D.K.I. Jakarta,SMA,-6.3073,106.8132
20103313,SMAN 50 JAKARTA,JL. PLN. CIPINANG MUARA III,Prop. D.K.I. Jakarta,SMA,-6.2195,106.8958
20107301,SMAS HARNASTO INSTITUT JAKARTA,JL. CIDODOL RAYA NO.40,Prop. D.K.I. Jakarta,SMA,-6.2286,106.7928
20101584,SMAN 95 JAKARTA,JL. SATU MARET NO. 49,Prop. D.K.I. Jakarta,SMA,-6.1263,106.7039
20103235,SMAS AL QUDWAH,JL. KAYU TINGGI,Prop. D.K.I. Jakarta,SMA,-6.1694,106.9496
20177805,SMAS KRISTEN 8 PENABUR,JL. TANJUNG DUREN RAYA NO.4 BLOK D,Prop. D.K.I. Jakarta,SMA,-6.1799,106.7914
69883577,SMA NATIONALHIGH JAKARTA SCHOOL,JL. RAYA POS PENGUMBEN,Prop. D.K.I. Jakarta,SMA,-6.20271,106.747912
20253934,SMAS IT ATTAUHID BABELAN,KP. MUARA PINANG LIMA,Prop. Jawa Barat,SMA,-6.0957,107.0529
20244679,SMAS YAKPI SUSUKAN,JL. KH. BUNYAMIN NO. 03,Prop. Jawa Barat,SMA,-6.6276,108.3758
20219794,SMAS KRISTEN PAULUS,JL. RAJIMAN NO. 11,Prop. Jawa Barat,SMA,-6.9036,107.5995
20235627,SMAS PGRI JATINANGOR,JL. RAYA JATINANGOR HEGARMANAH JATINANGOR - SUMEDANG,Prop. Jawa Barat,SMA,-6.9289,107.7795
20246453,SMAS ATTAQWA 02 BABELAN,JL. MASJID HIDAYATULLAH PULO ASEM BABELAN,Prop. Jawa Barat,SMA,-6.1703,107.0265
20220342,SMAN 1 BOGOR,JL. IR.H. JUANDA NO.16,Prop. Jawa Barat,SMA,-6.5974,106.7933
20227819,SMA AL-HUDA ARJASARI,JL. BABAKAN MANTRI PINGGIRSARI ARJASARI,Prop. Jawa Barat,SMA,-7.063459,107.632063
20237991,SMAN 1 MUARAGEMBONG,"JL. PANTAI LAUT , KEC. MUARAGEMBONG, BEKASI",Prop. Jawa Barat,SMA,-6.0066,107.028
20246376,SMAS AT TAWAZUN,JL. Sirnaraga Dusun Mekarsari RT 03/01,Prop. Jawa Barat,SMA,-6.527,107.6844
20235621,SMAN CIMANGGUNG,JL. BUNTER CIHANJUANG,Prop. Jawa Barat,SMA,-6.9569,107.8209
20223059,SMAS AL IHSAN,JL. BELUT 1 PERUMNAS 2 BEKASI SELATAN,Prop. Jawa Barat,SMA,-6.2463,106.9868
20251798,SMAS PLUS INFORMATIKA,JL. BOJONGHUNI NO. 9 CIAMIS,Prop. Jawa Barat,SMA,-7.3236255,108.3459017
20213886,SMAN 1 RAJAGALUH,JL. MUTIARA NO.60 RAJAGALUH,Prop. Jawa Barat,SMA,-6.7767,108.3419
20212957,SMA NEGERI 1 SUBANG,JL. H.O. ISKANDAR 4 SUBANG,Prop. Jawa Barat,SMA,-7.1294,108.5253
20212950,SMA NEGERI 1 CIWARU,JL. RAYA 11 APRIL,Prop. Jawa Barat,SMA,-7.0862,108.6412
69874079,SMA REGINA CAELI,PERUM METLAND TRANSYOGI KM 1 CILEUNGSI BOGOR,Prop. Jawa Barat,SMA,-6.413636,107.020064
20233655,SMAN 1 SERANG PANJANG,JL. RAYA CIJENGKOL SAGALAHERANG,Prop. Jawa Barat,SMA,-6.6753,107.6448
20256636,SMA PASUNDAN MAJALAYA,JL. LEUWIDULANG NO. 22,Prop. Jawa Barat,SMA,-7.048,107.7528
20280604,SMAS FUTURE GATE,JL YUDISTIRA KOMP PEMDA BLOK A,Prop. Jawa Barat,SMA,-6.2788,106.9649
20224107,SMA MUHAMMADIYAH 1,JL. JEND AMIR MACHMUD NO. 7,Prop. Jawa Barat,SMA,-6.8797,107.5497
20200670,SMAS DARUTAFSIR,JL. KP. PABUARAN KAUM DS. CIBANTENG RT 03/02,Prop. Jawa Barat,SMA,-6.6089,106.5947
20210745,SMAS ISLAM CIPASUNG,JL. PONPES CIPASUNG,Prop. Jawa Barat,SMA,-7.3499,108.1272
69918146,SMAN 4 CIBINONG,Jl. BOJONG KONENG RT 01 RW 01,Prop. Jawa Barat,SMA,-6.4862133,106.8582783
20208392,SMAN TANJUNGSARI,JL. RAYA TANJUNGSARI NO. 404 GUDANG - SUMEDANG,Prop. Jawa Barat,SMA,-6.897,107.8104
69857938,SMAN 12 KOTA DEPOK,Jl. Cipayung No.27,Prop. Jawa Barat,SMA,-6.4199867,106.795555
69881559,SMAN 1 CISAYONG,Jl. RAYA CISINGA KM. 19,Prop. Jawa Barat,SMA,-7.244366,108.127268
20215023,SMAS MUHAMMADIYAH KEDAWUNG,JL. TUPAREV NO. 70 A,Prop. Jawa Barat,SMA,-6.7104,108.5371
20227469,SMAN 9 GARUT,JL. BOJONGSARI TANGSI NO. 224,Prop. Jawa Barat,SMA,-7.0608,108.0907
20224124,SMA SANTA MARIA 3,JL. GATOT SUBROTO NO. 6,Prop. Jawa Barat,SMA,-6.8767,107.5455
20219750,SMAS ASIA AFRIKA 55,JL.A.YANI NO.107,Prop. Jawa Barat,SMA,-6.9202,107.6211
20220312,SMAS TUNAS HARAPAN,JL. PAHLAWAN NO.140,Prop. Jawa Barat,SMA,-6.6147933,106.80364
20203719,SMAS MUHAMADIYAH CIPANAS,JL. SUKASARI NO. 47,Prop. Jawa Barat,SMA,-6.7298,107.0371
20227866,SMAS MUSLIMIN CIPONGKOR,JL. PLTA SAGULING DS BARANANGSIANG CIPONGKOR,Prop. Jawa Barat,SMA,-6.8502,107.4922
20237369,SMAS MUHAMMADIYAH KARAWANG,"JL. K.H. Ahmad Dahlan No. 10-12 Kaum I Kel. Karawang Kulon, Karawang 41311",Prop. Jawa Barat,SMA,-6.3102,107.2918
20202261,SMAN 1 CISAAT,JL. VETERAN KM. 3 KAB.SUKABUMI,Prop. Jawa Barat,SMA,-6.9251917,106.8807117
20251791,SMAN 1 BANJARAN,JL. CIAPUS NO. 07,Prop. Jawa Barat,SMA,-7.0532,107.5895
20224115,SMA BUDI LUHUR,JL. KERKOF NO. 214 RT. 10/08 KP. PADAKASIH,Prop. Jawa Barat,SMA,-6.8888,107.5314
20220314,SMAS MUHAMMADIYAH,JL. PAHLAWAN GG RD SALEH 55,Prop. Jawa Barat,SMA,-6.6107633,106.7981517
20232377,SMAN 1 DRAMAGA,JL. RAYA DRAMAGA KM 07,Prop. Jawa Barat,SMA,-6.5696,106.74
20223057,SMAS BINA SISWA UTAMA,JL.ASTER RAYA NO. 15 PERUMAHAN HARAPAN BARU,Prop. Jawa Barat,SMA,-6.2096,106.9691
20231711,SMAS ISLAM DARUL ABROR,JL. RAYA KRANGGAN GG. CAMAR,Prop. Jawa Barat,SMA,-6.351,106.9246
20237986,SMAN 1 CIKARANG BARAT,PERUM TELAGA HARAPAN BLOK D CIKARANG BARAT,Prop. Jawa Barat,SMA,-6.26,107.125
69873998,SMA UNITY SCHOOL,"CENTRAL PARK, GRAND GALAXY CITY",Prop. Jawa Barat,SMA,-6.259757,106.971154
20231708,SMAS ISLAM DARUSALAM,JL. CIKUNIR RAYANO.  2A JAKA MULYA,Prop. Jawa Barat,SMA,-6.2547,106.9879
20214981,SMAN 1 SURANENGGALA,JL. SYEK MAGELUNG KAPETAKAN,Prop. Jawa Barat,SMA,-6.628,108.5092
20252008,SMAN 1 CIKIDANG,JL. PENDIDIKAN NO.35,Prop. Jawa Barat,SMA,-6.8976,106.6507
20227460,SMAN 28 GARUT,JALAN LETJEND S PARMAN,Prop. Jawa Barat,SMA,-7.5226,107.4871
20206205,SMAN 1 SOREANG,JL. RAYA SOREANG-BANJARAN KM.3,Prop. Jawa Barat,SMA,-7.034529,107.539344
20219738,SMAS BPI 1 BANDUNG,JL. BURANGRANG NO. 8,Prop. Jawa Barat,SMA,-6.9239,107.6194
20219721,SMAS BUNGA BANGSA BANDUNG,JL. DAGO BENGKOK NO. 3,Prop. Jawa Barat,SMA,-6.8639,107.6213
20213889,SMAN 2 MAJALENGKA,JL. JENDERAL AHMAD YANI NO. 2,Prop. Jawa Barat,SMA,-6.836,108.229
20271371,SMAS SAMPOERNA,JL. RAYA SUKABUMI KM 17 NO. 61 CARINGIN BOGOR,Prop. Jawa Barat,SMA,-6.7112,106.8222
69830500,SMA ISLAM BINA INSAN MANDIRI,Jl. PAMIJAHAN CIJERUK,Prop. Jawa Barat,SMA,-7.6066,108.1069
69874019,SMA ISLAM TERPADU YALHAS,Kp. Pasir Haur Rt 23 Rw 06,Prop. Jawa Barat,SMA,-6.839331,106.707084
20224549,SMAS ISLAM IBNU SIENA,JL. SILIWANGI NO. 41,Prop. Jawa Barat,SMA,-7.347,108.2296
20215981,SMAN 1 HAURGEULIS,JL. Budi Utomo No.7,Prop. Jawa Barat,SMA,-6.4656,107.9307
20219756,SMAS ANGKASA,Jl. Lettu Subagio No. 22,Prop. Jawa Barat,SMA,-6.9062,107.583
20200680,SMAN 1 JONGGOL,JL. SUKASIRNA JONGGOL  NO. 36,Prop. Jawa Barat,SMA,-6.4824,107.0597
69760679,SMAS PLUS NURUL IMAN,KP. GALUMPIT RT 05 RW 04,Prop. Jawa Barat,SMA,-7.1025,107.8809
20232313,SMAS AMALIAH,JL. RAYA TOL CIAWI NO. 1 DESA CIAWI,Prop. Jawa Barat,SMA,-6.6557,106.8496
69915812,SMAN 3 CIKAMPEK,JALAN JEND. A. YANI,Prop. Jawa Barat,SMA,-6.3954,107.4323
20245433,SMAN 2 CIKARANG PUSAT,Jl. Raya PLN  Desa Sukamahi,Prop. Jawa Barat,SMA,-6.375843,107.163929
20231715,SMAS MUTIARA 17 AGUSTUS,JL. RAYA TAMAN WISMA ASRI KAV.7,Prop. Jawa Barat,SMA,-6.2125,107.0311
20229746,SMAN 1 PASAWAHAN,JL. TERUSAN KAPTEN HALIM,Prop. Jawa Barat,SMA,-6.587,107.4747
20223022,SMAS YASFI,JL. RAYA KP. SAWAH JATIMURNI,Prop. Jawa Barat,SMA,-6.3276,106.932
20268860,SMAS YADIKA 13,JL. VILLA  INDAH 1 KP. KEBON,Prop. Jawa Barat,SMA,-6.2154,107.073
20223053,SMAS HANDAYANI,JL. RAYA HANKAM NO. 50 JATIMURNI,Prop. Jawa Barat,SMA,-6.3419,106.9233
20219784,SMAS PELITA BANGSA,JL. SOEKARNO HATTA NO. 391,Prop. Jawa Barat,SMA,-6.942413,107.607858
20253274,SMAS ISLAM TERPADU RIYADLUSSHOLIHIN,Kp. Kubangsalawe Tawangbanteng,Prop. Jawa Barat,SMA,-7.3018,108.1407
20222367,SMAN 4 CIREBON,JL. PERJUANGAN NO. 01,Prop. Jawa Barat,SMA,-6.7487,108.5405
20200675,SMAS TRIPLE J CITEUREUP,"JL. LANDBOUW , DS. KARANG ASEM BARAT NO.25",Prop. Jawa Barat,SMA,-6.4855,106.8667
69786373,SMAS TERPADU AL-MUKHTAR,Kp. PADAKARIA,Prop. Jawa Barat,SMA,-7.33,108.0693
20200687,SMAS EKAWIJAYA CIBINONG,JL. MAYOR OKING JAYAATMAJA NO. 54  KEL. CIRIUNG,Prop. Jawa Barat,SMA,-6.4747517,106.8649183
20232336,SMAS GITA PGRI,JL. MEYJEN H.R EDISUKMA NO. 298 DESA WATES JAYA,Prop. Jawa Barat,SMA,-6.7493,106.8048
20238011,SMAS DARUL MUALLAMAH,JL. PASIR KUPANG NAGASARI SERANG BARU KAB.BEKASI,Prop. Jawa Barat,SMA,-6.3818,107.1847
20203720,SMAS PASUNDAN CIKALONGKULON,JL. ARIAWIRATANUDATAR NO. 77,Prop. Jawa Barat,SMA,-6.7198,107.2123
20229142,SMAS ARRAHMAN,JL. MASJID AL ITTIHAD NO. 35,Prop. Jawa Barat,SMA,-6.43469,106.8079017
20233663,SMAS ASTHA HANNAS BINONG,JL. RAYA BINONG NO. 65 BINONG,Prop. Jawa Barat,SMA,-6.4046,107.7944
69883257,SMA DAR EL FIKRI CIANJUR,Jln. Bojongsari Kp. Nyalindung,Prop. Jawa Barat,SMA,-6.8527,107.2086
69787173,SMA SCHOOL OF UNIVERSE,Jl.RAYA PARUNG KM 43,Prop. Jawa Barat,SMA,-6.3739,106.9911
20203721,SMAS PGRI CIANJUR,JL. GATOT MANGKUPRAJA NO. 39,Prop. Jawa Barat,SMA,-6.8378,107.1273
20214977,SMAS PLUS NU PANGURAGAN,JL. NYI MAS GANDASARI NO. 10,Prop. Jawa Barat,SMA,-6.6269,108.4514
20223029,SMAS TAMAN HARAPAN 1,KOMP. PERUM HARAPAN BARU,Prop. Jawa Barat,SMA,-6.1845,106.9936
69948400,SMA NUSA BANGSA,Kp. Pasirpogor RT 02 RW 06,Prop. Jawa Barat,SMA,-7.4279,107.8916
20247144,SMAS AL MASTHURIYAH,Jl. Raya Cibolang KM 7 No. 03 Rt. 49/10,Prop. Jawa Barat,SMA,-6.9053717,106.87059
20220318,SMAS PGRI 3,JL. KH.SHOLEH ISKANDAR NO 19,Prop. Jawa Barat,SMA,-6.5597,106.7941
20231347,SMAS PGRI JASINGA,JL. RAYA  JASINGA/ JL. PANCA MARGA DS. PAMAGARSARI,Prop. Jawa Barat,SMA,-6.4836,106.4711
20263276,SMAS AL MUMINUN CIPAKU,RT 07/01 PANYINGKIRAN MUKTISARI CIPAKU,Prop. Jawa Barat,SMA,-7.2663,108.3914
20219273,SMAS YPKKP BANDUNG,JL. CIJERAH NO. 230,Prop. Jawa Barat,SMA,-6.9274,107.5651
20229165,SMAS MUHAMMADIYAH SAWANGAN,JL. ABDUL WAHAB NO. 19,Prop. Jawa Barat,SMA,-6.3924,106.7613
20244673,SMAS NU LEMAHABANG,JL. RAYA PANDE NO.09,Prop. Jawa Barat,SMA,-6.8309,108.632
69947131,SMAIT AL-ARABI,Perum Telaga Sakinah Blok CD 12 No.17,Prop. Jawa Barat,SMA,-6.3085472,107.1034641
20219779,SMAS PGRI 2,JL. CIPAGALO GIRANG NO. 42,Prop. Jawa Barat,SMA,-6.9522,107.6473
20224509,SMAN 3 TASIKMALAYA,JL. LETKOL BASIR SURYA NO.89,Prop. Jawa Barat,SMA,-7.3419,108.2513
20222384,SMAN 5 CIREBON,JL. PERJUANGAN MAJASEM,Prop. Jawa Barat,SMA,-6.744,108.5476
20210762,SMAS NURUL AMANAH SALAWU,Jl. Raya Tasik Garut Km.31 Rancak,Prop. Jawa Barat,SMA,-7.3645,107.9953
20251911,SMAN 1 MANIIS,JL. RAYA PALUMBON DESA SINARGALIH KEC.MANIIS PURWAKARTA,Prop. Jawa Barat,SMA,-6.7076,107.314
20227919,SMA ASH-SHOPA MAJALAYA,JL. RAYA BIRU MAJALAYA,Prop. Jawa Barat,SMA,-7.051,107.7327
69770473,SMAS IT YAPIRA,KP. MEDANG RT 01/08,Prop. Jawa Barat,SMA,-6.3622,106.648
20219233,SMAN 26 BANDUNG,JL. SUKALUYU,Prop. Jawa Barat,SMA,-6.9173,107.7253
20217763,SMAN 2 KARAWANG,JL. MANUNGGAL VII,Prop. Jawa Barat,SMA,-6.2923,107.3298
20227878,SMA PLUS MERDEKA SOREANG,JL. Citaliktik - Sindang Wargi,Prop. Jawa Barat,SMA,-7.0336,107.5403
20237361,SMAS AL KHOLIDIYAH,JL. RAYA PANGKALAN,Prop. Jawa Barat,SMA,-6.355,107.257
20219715,SMAS BPK 3 PENABUR BANDUNG,JL. RAYA CIBEUREUM NO. 92,Prop. Jawa Barat,SMA,-6.8986,107.5637
20219265,SMAS ST MARIA 1 BANDUNG,JL. BENGAWAN NO. 6,Prop. Jawa Barat,SMA,-6.9114,107.6315
20219776,SMAS PLUS AL GHIFARI BANDUNG,JL. CISARANTEN KULON NO. 140,Prop. Jawa Barat,SMA,-6.9246,107.6846
20219727,SMAS KARTIKA XIX-1,JL. TAMAN PRAMUKA NO. 163,Prop. Jawa Barat,SMA,-6.9093,107.6271
20232339,SMAS IBNU HAJAR,JL. KH. ABDUL HAMID KM .07 PASAREAN,Prop. Jawa Barat,SMA,-6.6362,106.6576
20253898,SMAS ISLAM ANNUR BABELAN,KP.KERANGKENG RT 05/03,Prop. Jawa Barat,SMA,-6.1411,107.0192
20212956,SMA NEGERI 2 KUNINGAN,JL. ARUJI KARTAWINATA NO. 16,Prop. Jawa Barat,SMA,-6.9793,108.4853
20258514,SMAS YADIKA 12,LIMO RAYA,Prop. Jawa Barat,SMA,-6.3717,106.7707
20227829,SMA BAKTI NUSANTARA,JL. ARJASARI LEBAKWANGI NO. 14 ARJASARI,Prop. Jawa Barat,SMA,-7.0466,107.6052
20223073,SMAS METROPOLITAN,JL. PEMUDA NO. 47 KRANJI,Prop. Jawa Barat,SMA,-6.2302,106.976
20220347,SMAS TAMAN SISWA BOGOR TENGAH,JL. MERDEKA NO. 172,Prop. Jawa Barat,SMA,-6.5829,106.7884
20254054,SMAN 1 RANCAEKEK,JL. WALINI RANCAEKEK BANDUNG,Prop. Jawa Barat,SMA,-6.959997,107.76571
20244793,SMAS IT BANI MASUM CISALAK,JL. RAYA CIMANGGU NO. 87,Prop. Jawa Barat,SMA,-6.7359,107.7837
20219272,SMAS YWKA,JL.ELANG II NO.3,Prop. Jawa Barat,SMA,-6.914,107.576
20213892,SMAN 1 SUKAHAJI,JL. RAYABARAT NO. 29 SUKAHAJI,Prop. Jawa Barat,SMA,-6.8187,108.2827
20233659,SMAS PGRI 2 SUBANG,JL. ARIEF RAHMAN HAKIM SUBANG NO.2,Prop. Jawa Barat,SMA,-6.5567,107.7607
20217357,SMAN 1 PURWAKARTA,JL. KK SINGAWAINATA NO. 113,Prop. Jawa Barat,SMA,-6.5604,107.4473
20223042,SMAN 7 BEKASI,JL. LINGKAR TATA KOTA KRANGGAN,Prop. Jawa Barat,SMA,-6.2575,106.9837
69945596,SMA IT TUNAS BANGSA ,Kp. Hegarmanah,Prop. Jawa Barat,SMA,-7.2882497,106.9969504
20258552,SMAS RAUDATUL ISLAM,JL. RAYA SINDANG BARANG KM.11.8,Prop. Jawa Barat,SMA,-7.4805,107.2258
20237992,SMAN 1 SETU,PERUM GRAHA MUSTIKA MEDIA SETU BEKASI,Prop. Jawa Barat,SMA,-6.3208,107.0467
20215985,SMAS YAPIN KERTASEMAYA,JL. RAYA TULUNGAGUNG NO 76,Prop. Jawa Barat,SMA,-6.5391,108.3523
20258335,SMAS UNGGUL AR-RAHMAN,Jl. Muhammad Amir KM 09,Prop. Jawa Barat,SMA,-6.8402,106.7186
20216197,SMAS P MKGR KERTASEMAYA,JL. KH. HASBULLAH TENAJAR LOR,Prop. Jawa Barat,SMA,-6.4917,108.3502
20219735,SMAS KARYA PEMB 2,JL. RAYA UJUNGBERUNG NO. 25,Prop. Jawa Barat,SMA,-6.9293,107.6885
20227830,SMA BINA NEGARA 1 BALEENDAH,JL. RAYA ANDIR NO.216 BALEENDAH,Prop. Jawa Barat,SMA,-7.0464,107.6051
20203705,SMAS MIFTAHUL HUDA,JL. RAYA LELES KM. 13,Prop. Jawa Barat,SMA,-7.3259,107.0647
20223049,SMAS PUTRA HARAPAN,JL. GURAME RAYA NO. 1 PERUM. I BEKASI,Prop. Jawa Barat,SMA,-6.2341,106.9837
20224546,SMAS PASUNDAN 2 TASIKMALAYA,JL.RE.MARTADINATA -JATI,Prop. Jawa Barat,SMA,-7.3025,108.2006
20227470,SMAN 23 GARUT,JL.Raya Bungbulang-Jatigede-Pakenjeng,Prop. Jawa Barat,SMA,-7.4454,107.6584
20253030,SMAS AL KHOLILIYAH,KP. CIKADU DESA SUKATANI KEC.PARAKAN SALAK,Prop. Jawa Barat,SMA,-6.8042,106.7305
69822687,SMAS ISLAM TERPADU AL KAFI CIGEDUG,Cigedug,Prop. Jawa Barat,SMA,-7.3317,107.8216
20254004,SMAS MADINATUNNAJAH,JL.  D.I. PANJAITAN NO 30 KALIMUKTI PABEDILAN,Prop. Jawa Barat,SMA,-6.8701,108.7899
20273960,SMA SASAMA,JL. BOJONG MUNCANG,Prop. Jawa Barat,SMA,-7.1015,107.7447
20229168,SMAN 6 KOTA DEPOK,JL. LIMO RAYA,Prop. Jawa Barat,SMA,-6.3706,106.7735
20235626,SMAS PGRI PARAKAN MUNCANG,JL. PARAKAN MUNCANG  SIMPANG KM. 23 CIMANGGUNG,Prop. Jawa Barat,SMA,-6.96292,107.827736
20254158,SMAS FAJAR DUNIA,JL. PALASARI TIMUR RT 021/010,Prop. Jawa Barat,SMA,-6.4364,106.9949
20254134,SMA TERBUKA (SMA NEGERI 5 DEPOK),KOMPLEK BUKIT RIVARIA,Prop. Jawa Barat,SMA,-6.4088,106.7604
20200673,SMAS TAMAN ISLAM,JL. KH. ABDUL HAMID KM.  4 SITU UDIK CIBUNGBULANG,Prop. Jawa Barat,SMA,-6.6142,106.6564
20223818,SMAN 2 KOTA DEPOK,JL. GEDE RAYA NO. 177 DEPOK TIMUR,Prop. Jawa Barat,SMA,-6.3945,106.8492
20224527,SMAS SILIWANGI TASIKMALAYA,JL. SAPTAMARGA NO. 54,Prop. Jawa Barat,SMA,-7.3459,108.2305
20268965,SMAS PLUS CENDEKIA CIKEAS,JL. BALAI DESA NAGRAK RT 04/05,Prop. Jawa Barat,SMA,-6.3858,106.9469
20218356,SMAN 1 CIKARANG UTARA,JL. KI HAJAR DEWANTARA NO. 91 CIKARANG UTARA BEKASI,Prop. Jawa Barat,SMA,-6.2484,107.1589
20233656,SMAN 1 TANJUNGSIANG,JL. SINDANGLAYA  TANJUNGSIANG,Prop. Jawa Barat,SMA,-6.7286,107.8113
20229164,SMAS MUHAMMADIYAH BEJI,JL. MI RIDWAN RAIS 37,Prop. Jawa Barat,SMA,-6.3787567,106.8256433
20232315,SMAS AS SYUJA IYAH,JL. SUKARAJA NAGRAK KM.1,Prop. Jawa Barat,SMA,-6.5988,106.8435
60726697,SMAN 1 CIEMAS,JL. PASIRHAUR,Prop. Jawa Barat,SMA,-7.2175,106.4854
20216194,SMAS AL ISHLAH BOARDING SCHOOL,JL. RAYA SUDIMAMPIR BALONGAN,Prop. Jawa Barat,SMA,-6.4234,108.3668
20244671,SMAS ISLAMIYAH WERU,JL.SYEKH DATUK KAHFI NO.45,Prop. Jawa Barat,SMA,-6.7038,108.5073
20227885,SMAS YAS SINDANGKERTA,JL. GANDOK SINDANGKERTA,Prop. Jawa Barat,SMA,-6.9877,107.4143
20224122,SMA PUTRA MANDIRI,JL. KOMP SANGKURIANG NO. 36,Prop. Jawa Barat,SMA,-6.867,107.5361
69950289,SMA PLUS DAMAR BANGSA,Jl. Palasari KM. 2 RT.03/1,Prop. Jawa Barat,SMA,-6.8637,106.7551
20214979,SMAS PGRI PALIMANAN,JL. KI AGENG TEPAK,Prop. Jawa Barat,SMA,-6.714,108.4363
20212951,SMA NEGERI 1 GARAWANGI,JL. RAYA GARAWANGI NO. 34,Prop. Jawa Barat,SMA,-6.9998,108.5421
69892332,SMA IT NURUL BAROKAH,BLOK DESA RT.05 RW.02 DESA KANCANA,Prop. Jawa Barat,SMA,-7.013892,108.371924
20233662,SMAS PGRI TANJUNG SIANG,JL. RAYA TANJUNGSIANG,Prop. Jawa Barat,SMA,-6.7474,107.8034
69874000,SMA CIMENTENG,JL BLOK BARU,Prop. Jawa Barat,SMA,-7.168388,107.216645
20219262,SMAS ALLOYSIUS 2,JL. BATUNUNGGAL INDAH II NO. 30,Prop. Jawa Barat,SMA,-6.9597,107.6343
20211565,SMAN 1 CIAMIS,JL GUNUNG GALUH NO.37 CIAMIS,Prop. Jawa Barat,SMA,-7.33083,108.355105
20219732,SMAS KIFAYATUL ACHYAR,JL. AH. NASUTION KM. 14,Prop. Jawa Barat,SMA,-6.9334,107.7168
20227813,SMA AL AMANAH CIWIDEY,JL.KOMPLEK MASJID BESAR CIWIDEY,Prop. Jawa Barat,SMA,-7.102959,107.462665
69882355,SMA TERPADU DAMPASAN,Jl. Pasir Garu Dusun Tuban RT.002/ RW.006,Prop. Jawa Barat,SMA,-7.512264,108.636231
20213897,SMAN 1 KADIPATEN,JL. LAPANGSARI NO. 61 KADIPATEN,Prop. Jawa Barat,SMA,-6.7724,108.1735
20247180,SMAS DAARUL AMANAH,Dusun Andansari  RT 003 RW 003,Prop. Jawa Barat,SMA,-6.796,108.3505
20275311,SMAS ISLAM FATAHILLAH CABANGBUNGIN,JL. RAYA PULORENGAS,Prop. Jawa Barat,SMA,-6.0803,107.1321
20231718,SMAN 12 BEKASI,JL. I GUSTI NGURAH RAI GG. MASJID AL IKHLAS KRANJI,Prop. Jawa Barat,SMA,-6.2228,106.9728
20220351,SMAS YZA 2 BOGOR,JL. DR. SEMERU NO. 59,Prop. Jawa Barat,SMA,-6.587,106.7838
20231325,SMAN 1 CIGUDEG,"JL. RAYA CIGUDEG KM. 35, DESA CIGUDEG",Prop. Jawa Barat,SMA,-6.5544,106.534
20262713,SMAS IJTIMAUL AHADIAH,JL. SEMBAHMADU NO.1,Prop. Jawa Barat,SMA,-7.4315,107.969
20223041,SMAN 8 BEKASI,JL. IRIGASI NO. 1 RT.05/21 PEKAYON JAYA,Prop. Jawa Barat,SMA,-6.2557,106.9744
69952214,SMA IT AT-TAUFIQ,KAMPUNG KADUREA RT 02 RW 01,Prop. Jawa Barat,SMA,-7.3113085,106.846179
69880471,SMA NU KARANGANYAR,Jalan Patimura Desa Karanganyar,Prop. Jawa Barat,SMA,-6.3804,108.1569
20264424,SMAN 1 JUNTINYUAT,JL. RAYA JUNTINYUAT NO. 14,Prop. Jawa Barat,SMA,-6.4291,108.4372
20219739,SMAS BINA DHARMA 2 BANDUNG,JL. BABAKAN SARI KIARACONDONG,Prop. Jawa Barat,SMA,-6.9226,107.6521
69760688,SMAS ISLAM NURUL IMAN,JL. RANCABUAYA KP. SAGA RT.03/09 DS. PURBAYANI,Prop. Jawa Barat,SMA,-7.4828,107.519
20222166,SMAN 8 CIREBON,JL. PRONGGOL PEGAMBIRAN,Prop. Jawa Barat,SMA,-6.732,108.5741
20220330,SMAS YPHB,JL.PAJAJARAN NO.234,Prop. Jawa Barat,SMA,-6.5782,106.8074
69856918,SMAS IT BAITURROHMAN,Kp. Solokpandan 01/ 02,Prop. Jawa Barat,SMA,-7.199,107.859
20231322,SMAN 1 BABAKAN MADANG,JL. RAYA BABAKAN MADANG,Prop. Jawa Barat,SMA,-6.573,106.8994
20233669,SMAS TAMAN SISWA PAMANUKAN,JL. EYANG TIRTA PRAJA NO. 87 PAMANUKAN,Prop. Jawa Barat,SMA,-6.2851,107.8116
20210769,SMAS YAB SUKARATU,JL.BATU MASIGIT SINAGAR,Prop. Jawa Barat,SMA,-7.2909,108.1466
20222382,SMAS ISLAM AL-AZHAR CIREBON,JL. PILANG SETRAYASA NO. 31,Prop. Jawa Barat,SMA,-6.7194,108.5627
20227901,SMAN 1 PARONGPONG,JL. CIHANJUANG RAHAYU NO.39,Prop. Jawa Barat,SMA,-6.8098,107.5762
20211578,SMAN 1 CIHAURBEUTI,JL. KARTAWIJAYA NO. 600 PAMOKOLAN CIHAURBEUTI,Prop. Jawa Barat,SMA,-7.195567,108.2004
20227820,SMA AL MASUDIYAH MARGAASIH,JL. CIGONDEWAH HILIR NO.42 MARGAASIH,Prop. Jawa Barat,SMA,-6.9442,107.5562
20203702,SMAS  ISLAM AL MAZIYYAH CILAKU,Jln. KH.MUHAMMAD SUDJAI KM 6.3 CIHARASHAS,Prop. Jawa Barat,SMA,-6.8674,107.1616
20251787,SMAS SUMUR BANDUNG CILILIN,JL. RAYA CILILIN UTARA NO. 52,Prop. Jawa Barat,SMA,-6.9539,107.4613
20233665,SMAS PLUS PAGELARAN CISALAK,JL. PONTREN PAGELARAN III CISALAK,Prop. Jawa Barat,SMA,-6.7189,107.7695
20274909,SMAS ISTIQOMAH,KOMPLEK PURAGABAYA NO. 14 JL. CIJAWURA GIRANG RT 01/14,Prop. Jawa Barat,SMA,-6.9443,107.6473
20227877,SMA PLUS ISLAM PACET,JL.CAGAK NO.13 MARUYUNG PACET,Prop. Jawa Barat,SMA,-7.1501,107.3335
20220352,SMAS BINA BANGSA SEJAHTERA,JALAN RAYA DRAMAGA KM. 7,Prop. Jawa Barat,SMA,-6.5709,106.7447
20221593,SMAS PELITA MADANIA,Jl. Otista,Prop. Jawa Barat,SMA,-6.9271,106.9355
20219271,SMAN 1 BANDUNG,JL. IR. H. JUANDA NO. 93 Bandung,Prop. Jawa Barat,SMA,-6.8955,107.6128
20223024,SMAS TUNAS JAKA SAMPURNA,"JL. SADEWA RAYA BLOK C NO.1, JAKASETIA",Prop. Jawa Barat,SMA,-6.26,106.9636
20258093,SMAS BOGOR RAYA,"Perumahan Danau Bogor Raya, Kota Bogor",Prop. Jawa Barat,SMA,-6.5971,106.8202
20219316,SMAN 7 BANDUNG,JL. LENGKONG KECIL NO. 53,Prop. Jawa Barat,SMA,-6.9232,107.615
20217788,SMAN 1 PEDES,JL. Raya Sungaibuntu,Prop. Jawa Barat,SMA,-6.1083,107.3639
69954141,SMA IT NURUL ITTIHAD,Jl. Waringinsari Kp. Sukarilah Rt/Rw 02/02,Prop. Jawa Barat,SMA,-7.087373,106.993752
20216942,SMAN 1 KALIJATI,JL. RAYA TANGGULUN BARAT NO. 1,Prop. Jawa Barat,SMA,-6.5488,107.6474
20252192,SMA NEGERI  1 KADUPANDAK,JL. SILIWANGI NO. 1,Prop. Jawa Barat,SMA,-7.2541,107.0472
20214969,SMAN 1 BABAKAN,JL. PANGERAN SUTAJAYA NO. 4,Prop. Jawa Barat,SMA,-6.851,108.7231
20219734,SMAS KEMAH IND 2,JL.SADANG SERANG,Prop. Jawa Barat,SMA,-6.8878,107.6252
20219801,SMAS MUTIARA 1,JL. MALEBER UTARA NO. 37,Prop. Jawa Barat,SMA,-6.9074,107.5782
20209191,SMAS ISLAM CIKUYA BUNGBULANG,JL. KP. CIKUYA,Prop. Jawa Barat,SMA,-7.4593,107.5752
20251782,SMAN 1 CIKALONGWETAN,JL. RAYA CIKALONGWETAN,Prop. Jawa Barat,SMA,-6.7626,107.4638
69946479,SMA EDU GLOBAL,Jl. Kalimantan No. 7,Prop. Jawa Barat,SMA,-6.9121206,107.6240599
69929546,SMA JUMHURIYYAH,Kp.Cipunaga,Prop. Jawa Barat,SMA,-7.3448,106.9374
20255779,SMAS TAUHIDUL APKAR,JL. HANJAWAR-PACET-MARIWATI CIBADAK GIRANG,Prop. Jawa Barat,SMA,-6.7121,107.0593
20202263,SMAN 1 JAMPANGKULON,JL. WARUNG TAGOG,Prop. Jawa Barat,SMA,-7.29,106.6368
20232303,SMAS AL ASIYAH,JL. RAYA JAKARTA BOGOR PABUARAN CIBINONG,Prop. Jawa Barat,SMA,-6.4634883,106.8549133
20238021,SMA PELITA HARAPAN CIKARANG,"JL. DAGO PERMAI NO. 1 LIPPO CIKARANG, CIKARANG SELATAN",Prop. Jawa Barat,SMA,-6.3287,107.1475
20232337,SMAS HANURA,JL. BABAKAN KEMANG DS. CIHIDEUNG UDIK,Prop. Jawa Barat,SMA,-6.5657,106.7115
69949270,SMA COKROAMINOTO BALEGEDE,Jl. Raya Balegede,Prop. Jawa Barat,SMA,-7.4124708,107.289134
20276389,SMAS IT RAUDHATUL ULUM,KP. CIJEURAI RT. 003 RW. 014,Prop. Jawa Barat,SMA,-6.5542,106.5476
20276388,SMAN 1 KLAPANUNGGAL,JL. TERUSAN BOJONG,Prop. Jawa Barat,SMA,-6.4527,106.9606
20219324,SMAN 9 BANDUNG,LMU I SUPARMIN NO. I A BANDUNG,Prop. Jawa Barat,SMA,-6.901,107.5858
69775444,SMAS IT UMMUL QURO,JL. KAYU MANIS,Prop. Jawa Barat,SMA,-6.5084,106.7707
20233668,SMAS SUDIRMAN PURWADADI,JL. RAYA PASIRBUNGUR NO.66 PURWADADI,Prop. Jawa Barat,SMA,-6.4368,107.6883
20224121,SMA PASUNDAN 3,JL. ENCEP KARTAWIRIA NO. 97A,Prop. Jawa Barat,SMA,-6.8617,107.5511
20237371,SMAN 1 CIKAMPEK,JL. IR. H. JUANDA CIKAMPEK,Prop. Jawa Barat,SMA,-6.398,107.4656
69862451,SMA IT TUNAS BANGSA,JL. KALIMULYA NO. 86B,Prop. Jawa Barat,SMA,-6.4377133,106.8218667
20220328,SMAS KAMANDAKA,JL. BANGBARUNG RAYA,Prop. Jawa Barat,SMA,-6.5821,106.8154
69934552,SMA BAITUL QUR`AN,"Komp. Timah, Blok CC III No. 19 Kelapa Dua",Prop. Jawa Barat,SMA,-6.3639,106.8443
69934745,SMA PLUS AL-MUBAROK,Kp. Karyamandala RT 02 RW 02,Prop. Jawa Barat,SMA,-7.4395,108.2772
69929246,SMA NURUL FALAH CINANGSI,Kp. Cinangsi RT 05/05,Prop. Jawa Barat,SMA,-7.4851383,107.6510547
20216938,SMAN 1 SUBANG,JL. KI HAJAR DEWANTARA NO. 14A SUBANG,Prop. Jawa Barat,SMA,-6.5557,107.7518
69896978,SMA Al Islam Islamic Boarding School,Jl. Raya Cirebon - Kuningan - Desa Kondangsari RT. 12/04,Prop. Jawa Barat,SMA,-6.7968,108.5275
69902897,SMAS IT KI HAJAR DEWANTORO,Kp. Pulo RT.04/37,Prop. Jawa Barat,SMA,-6.217,107.0765
69900119,SMA PLUS AL-MUQORROBIN CISOMPET,Kp. Cihideung Desa. Cikondang,Prop. Jawa Barat,SMA,-7.5828,107.8669
69755543,SMAS PLUS PERSIS PAMEUNGPEUK,JL. TEGALGEDE,Prop. Jawa Barat,SMA,-7.6115,107.7214
20227916,SMA ISLAM AL-MUKLIS,JL. PANYAUNGAN NAGRAK,Prop. Jawa Barat,SMA,-7.0544,107.5492
20200604,SMAN 1 TAMANSARI,JL.. JAGA KARSA DESA TAMAN SARI,Prop. Jawa Barat,SMA,-6.6552,106.7488
20279952,SMAS PILAR INDONESIA,JALAN DEWA NO. 9 CIANGSANA,Prop. Jawa Barat,SMA,-6.3712,106.9481
20232368,SMAS MUHAMMADIYAH PAMIJAHAN,"Jln. K.H. Abdul Hamid Km.15, Kp. Sindang Baru",Prop. Jawa Barat,SMA,-6.6831,106.6479
20238026,SMAS TRINITAS,JL. MAJAPAHIT 52 TAMAN SIMPRUG LIPPO CIKARANG,Prop. Jawa Barat,SMA,-6.3459,107.1579
20224541,SMAS ANGKASA TASIKMALAYA,JL. GARUDA NO. 26,Prop. Jawa Barat,SMA,-7.3359,108.2246
20238013,SMAS DIAN HARAPAN,JL. PALEM KUNING RAYA 2 TAMAN BEVERLI LIPPO,Prop. Jawa Barat,SMA,-6.3388,107.1503
20219766,SMAS PASUNDAN 2 BANDUNG,Jl. Cihampelas No. 167,Prop. Jawa Barat,SMA,-6.8904,107.6041
69857939,SMAN 13 Kota Depok,Jl. Pedurenan,Prop. Jawa Barat,SMA,-6.3768,106.8733
20223058,SMAS ATTAQWA,JL. KALIABANG BUNGUR NO.2,Prop. Jawa Barat,SMA,-6.1787,106.9808
20202251,SMAN 1 WARUNG KIARA,JL. PELABUHAN RATU KM. 29 WARUNGKIARA,Prop. Jawa Barat,SMA,-6.9771,106.7193
20224109,SMA NEGERI 4 CIMAHI,JL. KIHAPIT BARAT NO. 323,Prop. Jawa Barat,SMA,-6.9025,107.5221
20206211,SMA NEGERI 1 LEMBANG,JL. MARIBAYA NO. 68 LEMBANG,Prop. Jawa Barat,SMA,-6.8253,107.639
20221559,SMAN 1 SUKABUMI,JL. RH. DIDI SUKARDI NO.124 SUKABUMI,Prop. Jawa Barat,SMA,-6.9389,106.9309
20227834,SMAS DARUL FALAH CIHAMPELAS,JL. RAYA CIHAMPELAS NO. 45,Prop. Jawa Barat,SMA,-6.9262,107.4796
20265521,SMAS PGRI 3,SUKUP NO.15,Prop. Jawa Barat,SMA,-6.9111,107.6923
69910388,SMA IT CARINGIN,Kp. Cimahi RT 01/12,Prop. Jawa Barat,SMA,-7.4792348,107.4978487
20203742,SMA NEGERI  1 CILAKU,JL. PERINTIS KEMERDEKAAN NO. 01,Prop. Jawa Barat,SMA,-6.8485,107.1361
20220336,SMAN 7 BOGOR,JL. PALUPUH NO.7,Prop. Jawa Barat,SMA,-6.5781,106.8143
20224110,SMA KARTIKA XIX-4,JL. DR. SAM RATULANGI D-26,Prop. Jawa Barat,SMA,-6.8924,107.533
69856208,SMA QUANTUM INDONESIA,JL. Cimatis-Kalimanggis,Prop. Jawa Barat,SMA,-6.390949,106.92012
69734349,SMAS AT TAUBAH,JL. KH ISHAK MUJAWIR NO. 01 RT 01/01,Prop. Jawa Barat,SMA,-6.3116,107.4289
69944078,SMAN 1 CIREUNGHAS,Jl. Tugu Cilangla KM.12,Prop. Jawa Barat,SMA,-6.9389511,107.0333911
20217479,SMAN 1 CIBATU,JL. RAYA SUBANG KM. 15,Prop. Jawa Barat,SMA,-6.5018,107.5343
20229141,SMAS TERPADU ALMANAR,JL. RAYA LIMO PELITA  NO. 10,Prop. Jawa Barat,SMA,-6.3633,106.7781
20238006,SMAS ISLAM ASY SYIFA,KP. SAMPORA  DS. JAYA SAMPURNA KEC.SERANG BARU BEKASI,Prop. Jawa Barat,SMA,-6.3814,107.0853
20215025,SMAS KRAMAT DUKUPUNTANG,JL. KI AGENG TEPAK NO.161,Prop. Jawa Barat,SMA,-6.7678,108.4148
20233654,SMAN 1 PUSAKANAGARA,Jalan Ciawitali No. 47,Prop. Jawa Barat,SMA,-6.274963,107.876274
20210761,SMAS MUHAMMADIYAH SINGAPARNA,JL. MUHAMMADIYAH CIKEDOKAN SINGAPARNA,Prop. Jawa Barat,SMA,-7.3463,108.1114
20270720,SMAS ISLAM HASMI,"Jln. Raya Cimanglid, Ciapus",Prop. Jawa Barat,SMA,-6.6374,106.7788
69907646,SMA DAARUL MUAWANAH,Kp. Sadanganyar Km. 10 Ds. Kertasari,Prop. Jawa Barat,SMA,-7.435736,107.076694
20268951,SMAS IT DARUL MUHSININ,JL RAJAWALI RAYA JC 13 NO 23 PERUM CITRA VILLA,Prop. Jawa Barat,SMA,-6.2474,107.0855
20215976,SMAN 1 KRANGKENG,JL. Raya Krangkeng No. 1,Prop. Jawa Barat,SMA,-6.4964,108.4771
20212940,SMA PUI CIWEDUS TIMBANG,Jln KH. Syaubari Nomor 77,Prop. Jawa Barat,SMA,-6.8788,108.5152
20217093,SMAS NURUL GINA ABIDIN CISALAK,JL. RAYA LIMA RATUS CISALAK,Prop. Jawa Barat,SMA,-6.696,107.7309
20265522,SMAS PLUS PARIWISATA,JL. TERS. BOROBUDUR NO. 1-4,Prop. Jawa Barat,SMA,-6.9584,107.5914
20238007,SMAS BAITURRAHMAN,KP. CIHOE RT.01/05 DS. RIDOGALIH CIBARUSAH,Prop. Jawa Barat,SMA,-6.441,107.1158
20246436,SMAS AN NAJAH,JL. RAYA CIKOLEANG DEPAN LAPAN DESA,Prop. Jawa Barat,SMA,-6.4297,106.5754
20229166,SMAN 4 KOTA DEPOK,JL. JERUK RAYA  KOMPLEK SUKATANI PERMAI KEL. SUKATANI KEC. TAPOS KOTA DEPOK,Prop. Jawa Barat,SMA,-6.3941,106.8823
20244733,SMAS RIYADLUL JANNAH,JL. INDUSTRI NO. 114 PASIR GOMBONG CIKARANG UTARA,Prop. Jawa Barat,SMA,-6.2766,107.1515
20227822,SMA ANGKASA MARGAHAYU,JL. TERUSAN KOPO KM. 10,Prop. Jawa Barat,SMA,-6.983,107.5637
20252047,SMAS MAARIF PACET,JL. RAYA PACET NO.30,Prop. Jawa Barat,SMA,-6.6974,107.056
20252202,SMA NEGERI 1 MANDE,Jln. R. Aria Natamanggala km.14,Prop. Jawa Barat,SMA,-6.7632,107.2378
20253086,SMAS PASUNDAN 9 BANDUNG,Jl. Babakan Ciparay Gg. Atakiria I No 28 Bandung,Prop. Jawa Barat,SMA,-6.9426,107.5851
20253399,SMAS MAARIF BANYURESMI,Kp. Teureup RT 01/06,Prop. Jawa Barat,SMA,-7.1544,107.8925
20247316,SMAN 2 CIKAMPEK,JL. JEND. A.YANI,Prop. Jawa Barat,SMA,-6.3956,107.4322
20254341,SMAS AL QODIRIYAH CIBEBER,JL. CIBAREGBEG,Prop. Jawa Barat,SMA,-6.954468,107.130203
20221587,SMAS PESANTREN TERPADU HAYATAN THAYYIBAH,JL. KARAMAT NO. 123 SUKABUMI,Prop. Jawa Barat,SMA,-6.9038,106.9177
20251819,SMA Negeri 10 Tasikmalaya,JL. KARIKIL MANGKUBUMI,Prop. Jawa Barat,SMA,-7.358046,108.173109
20276187,SMAN 9 DEPOK,JL. BALI RT 03/013 MEGAPOLITAN VILLAGE,Prop. Jawa Barat,SMA,-6.3426,106.7727
20215024,SMAS MANDIRI KEDAWUNG,JL. KEMBOJA TUPAREV NO 20 KEDAWUNG,Prop. Jawa Barat,SMA,-6.7208,108.5347
69859377,SMA TUNAS PERSADA MALANGBONG,JL. MALANGBONG-WADO DESA MEKARASIH KEC. MALANGBONG,Prop. Jawa Barat,SMA,-7.0231,108.0833
20247160,SMAS MUTIARA,JL. BHAYANGKARA KM.1 PALABUHAN RATU,Prop. Jawa Barat,SMA,-6.7852,106.7248
60726183,SMAS TERPADU NURUSSA ADAH,JL. INTAKE Kp.Cikerti Rt.02 rw.05,Prop. Jawa Barat,SMA,-6.9069,107.3724
20206151,SMAN 1 BALEENDAH,JL. RAA. WIRANATAKUSUMAH NO. 30 BALEENDAH,Prop. Jawa Barat,SMA,-7.001,107.6229
20225276,SMAS AL AZHAR,JL. PESANTREN NO.2,Prop. Jawa Barat,SMA,-7.3846,108.6032
20227443,SMAS MUHAMMADIYAH CIBIUK,JL. RAYA CIBIUK NO. 3,Prop. Jawa Barat,SMA,-7.0792,107.9383
20262716,SMAN 1 BANTARKALONG,JL. RAYA PAMIJAHAN,Prop. Jawa Barat,SMA,-7.5769,108.0969
20251860,SMAS IMAN MUARAGEMBONG,JL. PANTAI LAUT,Prop. Jawa Barat,SMA,-5.9883,107.04
20231283,SMAS BUNDA HATI KUDUS,JL. TRANSYOGI KM.6 KOTA WISATA,Prop. Jawa Barat,SMA,-6.3875,106.9489
20229172,SMAS PRIBADI BEJI,JL. MARGONDA RAYA NO. 229,Prop. Jawa Barat,SMA,-6.3824,106.8296
20211502,SMAN 1 LAKBOK,JL.RAYA CINTAJAYA LAKBOK,Prop. Jawa Barat,SMA,-7.404,108.6596
20231330,SMAN 1 GUNUNG PUTRI,JL. RAYA SANDING BOJONGNANGKA,Prop. Jawa Barat,SMA,-6.4268,106.9149
20232371,SMAN 1 TAJURHALANG,JL. RAYA TAJUR HALANG - BOJONG GEDE NO. 6 DS. TAJURHALANG,Prop. Jawa Barat,SMA,-6.4767,106.757
69893232,SMA PGRI BANTARGADUNG,Jl. Pasirsuren - Bojongsoka,Prop. Jawa Barat,SMA,-6.98663,106.685196
20219275,SMAS YPS,JL. KOPO / PAKASIH N0.10,Prop. Jawa Barat,SMA,-6.9502,107.5878
69786423,SMAN 30 GARUT,Jl. Raya Cihurip Kp. Mulyasari Ds. Cihurip,Prop. Jawa Barat,SMA,-7.4915,107.861
20224105,SMA PASUNDAN 2,JL. MELONG RAYA NO. 4,Prop. Jawa Barat,SMA,-6.9249,107.5635
20237988,SMAN 1 CIKARANG TIMUR,JL. CITARIK RAYA NO. 1 CIKARANG TIMUR,Prop. Jawa Barat,SMA,-6.2744,107.2014
20252020,SMA IIBS,JL. RAYA INDUSTRI NO.1 HYUNDAI LIPPO CIKARANG,Prop. Jawa Barat,SMA,-6.352,107.1204
20225280,SMAN 2 BANJAR,Jl. KH. Muhamad Sanusi,Prop. Jawa Barat,SMA,-7.3506,108.6363
20253303,SMAS PROKLAMASI 1945,JL. CARINGIN MUSTIKA SARI,Prop. Jawa Barat,SMA,-6.2922,107.0368
20227881,SMA SWADAYA KARYA CIWIDEY,JL.CIBADAK CIBUNI RANCABALI,Prop. Jawa Barat,SMA,-7.1933,107.3635
20268843,SMAS PLUS AL-FALAH,JL. RAYA PANTAI SELATAN CIDADAP,Prop. Jawa Barat,SMA,-7.7771,108.1177
69935579,SMA TUNAS KARYA,Kp. Cirata RT 01 RW 04,Prop. Jawa Barat,SMA,-7.3427958,107.8186143
20229177,SMAS TARBIYAH ISLAMIYAH,JL. KEMBANG BEJI NO. 55 DEPOK UTARA,Prop. Jawa Barat,SMA,-6.3852,106.8158
20237984,SMAN 1 BOJONGMANGU,JL. Raya POJ Desa Bojongmangu Kec. Bojongmangu Kab. Bekasi,Prop. Jawa Barat,SMA,-6.4328,107.1751
69947905,SMA IT BAITUL HIKMAH AS-SHIDDIQ,Kp. Cikapunduhan RT 06 RW 02,Prop. Jawa Barat,SMA,-7.2178953,107.7974401
20252516,SMAS CINDERA MATA,"JL. DAHLIA INDAH BLOK JF. PERUM, HARAPAN INDAH",Prop. Jawa Barat,SMA,-6.1739,106.9784
20224139,SMA NEGERI 2 CIMAHI,JL. KPAD SRIWIJAYA IX NO. 45 A,Prop. Jawa Barat,SMA,-6.8821,107.5343
20219716,SMAIT MIFTAHUL KHOIR,JL. TUBAGUS ISMAIL VIII NO. 60,Prop. Jawa Barat,SMA,-6.8846,107.6179
20271050,SMAN 1 CIJERUK,Jl. K.H Halimi Gegerbitung Hongbu,Prop. Jawa Barat,SMA,-6.6949,106.7952
69856205,SMA IT AL MUCHTAR,JL. KH. MUCHTAR THABRAN 1 NO. 32,Prop. Jawa Barat,SMA,-6.202555,107.014078
20268809,SMAS IT NURURRAHMAN,JL. RAYA SAWANGAN KM 2,Prop. Jawa Barat,SMA,-6.3964,106.8034
20212949,SMA NEGERI 1 CINIRU,JL. RAYA HANTARA CINIRU,Prop. Jawa Barat,SMA,-7.0451,108.4987
20223021,SMAS YPI 45,JL. CUT MEUTIA NO.83 BEKASI,Prop. Jawa Barat,SMA,-6.3367,106.9727
20227913,SMA BHAKTI PUTRA,JL. CIBODAS 61 SOLOKANJERUK,Prop. Jawa Barat,SMA,-7.0239,107.7681
20257336,SMAS IT DARUSSUUD TANJUNGSIANG,JL. PASIRLAJA PAKU HAJI TANJUNGSIANG,Prop. Jawa Barat,SMA,-6.7385,107.7899
69775678,SMAS PLUS IBNU SINA,JL. CIKAMPAK - SEGOG KM 9,Prop. Jawa Barat,SMA,-6.6467,106.687
20200887,SMAN 1 PARUNG PANJANG,"JL. RAYA SUDAMANIK KM. 7, DESA JAGABAYA",Prop. Jawa Barat,SMA,-6.3589,106.5832
20200667,SMAS PANDU,JL. RAYA CIBUNGBULANG KM 15 BOGOR,Prop. Jawa Barat,SMA,-6.5647,106.6803
20220313,SMAS MARDI YUANA,JL. SILIWANGI NO.50,Prop. Jawa Barat,SMA,-6.614965,106.8082517
20218378,SMAN 1 CIKARANG SELATAN,JL. SERANG CIBARUSAH KM. 1,Prop. Jawa Barat,SMA,-6.3341,107.1194
20231317,SMAS MARSUDIRINI,PERUM TELAGA KAHURIPAN DS. TEGAL KEC. KEMANG,Prop. Jawa Barat,SMA,-6.4821,106.703
20247157,SMAS AL FARDIYATUSSAADAH,JL. RAYA CITEPUS RT 02/14,Prop. Jawa Barat,SMA,-6.976,106.5321
20227463,SMAN 4 GARUT,JL. PERKEBUNAN GIRIAAWAS,Prop. Jawa Barat,SMA,-7.3652,107.8205
20247145,SMAS AL ATIQIYAH,JL. CIPANENGAH-BOJONG GENTENG,Prop. Jawa Barat,SMA,-6.8377,106.7395
20200886,SMAN 1 CIGOMBONG,JL. MAYJEN H.E SUKMA NO. 297 DS. WATES JAYA,Prop. Jawa Barat,SMA,-6.7492,106.8041
20209237,SMAN 16 GARUT,JL. RAYA CIDATAR NO. 810,Prop. Jawa Barat,SMA,-7.2744,107.778
20227814,SMA KP CICALENGKA,KOMPLEKS PERSEKOLAHAN SAWAH LEGA NAGROG,Prop. Jawa Barat,SMA,-6.9982,107.8619
20233649,SMAS MATLAUL HUDA PURWADADI,JL. PURWAJAYA No. 296,Prop. Jawa Barat,SMA,-6.4483,107.7034
20252051,SMAS PASUNDAN 1 CIANJUR,JL. PASUNDAN NO. 31,Prop. Jawa Barat,SMA,-6.8131,107.1528
20254097,SMAS KETAPANG 3,"Jl Transyogi KM 6  Legenda Wisata    Zona Napoleon Blok E/A, Kel Nagrak",Prop. Jawa Barat,SMA,-6.4007,106.9464
20247270,SMAS ASSALAFIYAH CIASEM,JL. KEBONCAU DUSUN SIDAMULYA CIASEM,Prop. Jawa Barat,SMA,-6.3433,107.6895
20257330,SMAS VICTORY PLUS,JL. KEMANG PRATAMA BLOK A.N NO. 23,Prop. Jawa Barat,SMA,-6.2775,106.9895
69831977,SMA ISLAM KREATIF MUHAMMADIYAH CIANJUR,Jl. KH. Abdullah Bin Nuh No. 64,Prop. Jawa Barat,SMA,-6.8399,107.1425
20227839,SMAS HARAPAN BANGSA BALEENDAH,JL. PURADINATA NO. D19 BALEENDAH,Prop. Jawa Barat,SMA,-7.0080034,107.6213319
20233645,SMAS BINA BHAKTI JALANCAGAK,JL. BUNIHAYU TAMBAKAN JALANCAGAK,Prop. Jawa Barat,SMA,-6.665,107.7027
20219793,SMAS REHOBOTH,JL. RD. DEWI SARTIKA,Prop. Jawa Barat,SMA,-6.9257,107.6045
20232396,SMAS PGRI CIBINONG,JL. GOLF CIRIUNG CIBINONG,Prop. Jawa Barat,SMA,-6.4671567,106.8649167
20223044,SMAN 5 BEKASI,JL. GAMPRIT JATI WARINGIN  ASRI,Prop. Jawa Barat,SMA,-6.2807,106.9223
20232369,SMAS MULIA BUANA,JL. PESANTREN NO. 23 DESA KEBASIRAN,Prop. Jawa Barat,SMA,-6.3454,106.5728
20209183,SMAN 3 GARUT,JL. JENDRAL A. YANI CIBATU,Prop. Jawa Barat,SMA,-7.0886,107.9799
69945126,SMA PLUS SIROJUSSYAFIIYYAH,Jl. Kemang Kp. Cihurang Rt/Rw 03/07,Prop. Jawa Barat,SMA,-6.7362728,107.0017298
20216941,SMAN 1 PAGADEN,JL. CIPUNAGARA PAGADEN,Prop. Jawa Barat,SMA,-6.4629,107.819
20245434,SMAN 3 CIKARANG UTARA,JL. MELATI RAYA BLOK A PERUM BUMI CITRA LESTARI,Prop. Jawa Barat,SMA,-6.2893,107.1531
20206171,SMA ASSALAM DAYEUHKOLOT,JL.SITU TARATE CIBADUYUT DAYEUHKOLOT,Prop. Jawa Barat,SMA,-6.9666,107.5926
20214966,SMAN 1 CIWARINGIN,JL.JENDRAL URIP SUMOHARJO NO. 39,Prop. Jawa Barat,SMA,-6.661,108.3937
69902487,SMA AWWALULHUDA,Jl. Sempurgemreng,Prop. Jawa Barat,SMA,-7.393737,106.822719
69827809,SMA AL AMIN,Jl.TAMRIN No. 1 CIBENING,Prop. Jawa Barat,SMA,-6.664924,106.658855
20219264,SMA SANTA MARIA 2,JL. SULAKSANA BARU I NO. 18,Prop. Jawa Barat,SMA,-6.9149,107.6339
69922305,SMA DARUL ULUM KADUPANDAK,Kp. Caringin Rt/Rw 03/04,Prop. Jawa Barat,SMA,-7.2236968,107.0519217
20214989,SMAN 1 SUMBER,JL. SUNAN MALIK IBRAHIM NO.4,Prop. Jawa Barat,SMA,-6.761,108.4786
20271985,SMAS AL JIHAD,JL. Desa Gunung Mulya,Prop. Jawa Barat,SMA,-6.6478,106.7044
20227860,SMA MUHAMMADIYAH 2 MAJALAYA,JL. LASWI NO. 151 MAJALAYA,Prop. Jawa Barat,SMA,-7.050193,107.758699
69758461,SMA NURUL FALAH,KP. CISOLOK,Prop. Jawa Barat,SMA,-7.2798,108.0205
20238022,SMAS SARIPUTRA,JL. RE. MARTADINATA GG. NAKULA NO.35A CIKARANG UTARA,Prop. Jawa Barat,SMA,-6.2625,107.1415
20228467,SMA MUTIARA SANDI,JL. LASWI NO 345 MANGGAHANG BALEENDAH,Prop. Jawa Barat,SMA,-7.018487,107.654023
20222167,SMAN 9 CIREBON,JL. PRAMUKA KEBON PELOK,Prop. Jawa Barat,SMA,-6.757,108.5491
20231710,SMAS ISLAM ASSYAFIIYAH 02,JL. JATIWARINGIN NO. 8,Prop. Jawa Barat,SMA,-6.2718,106.9201
69754538,SMAS PUTRADARMA GLOBAL SCHOOL,"PERUM METLAND TAMBUN, JL KALIMAYA RT. 06/03",Prop. Jawa Barat,SMA,-6.2675,107.0713
69948448,SMA NEGERI 1 SUKRA,"Jln. Raya Sukra-Ujunggebang Km. 0,5",Prop. Jawa Barat,SMA,-6.2971,107.9355
20211563,SMAN 1 BANJARSARI,JL. RAYA KM 03 BANJARSARI,Prop. Jawa Barat,SMA,-7.5029,108.6311
20268864,SMAS MA ARIF NU,JL. RAYA KRETEG NO. 55 KP. SUKAJAYA RT. 01/02,Prop. Jawa Barat,SMA,-6.601,106.7596
20216952,SMAN 3 SUBANG,JL. EMO KURNIAATMAJA NO. 1 SUBANG,Prop. Jawa Barat,SMA,-6.5757,107.7666
20219807,SMAS MUHAMMADIYAH 1,JL. KANCIL,Prop. Jawa Barat,SMA,-6.9127,107.5804
20210773,SMAS PLUS AL WAHID SALAWU,JL. WANASIGRA,Prop. Jawa Barat,SMA,-7.3311,107.9412
20215021,SMAS NU CILEDUG,JL. LETJEND. SUPRAPTO,Prop. Jawa Barat,SMA,-6.9032,108.749
69899711,SMA PEMBERDAYAAN UMMAT AN NAHL,Kp.PASAR KEMIS RT 03 RW 03 GUNUNG PICUNG PAMIJAHAN BOGOR,Prop. Jawa Barat,SMA,-6.6734,106.6642
20219736,SMAS KARYA AGUNG,JL. TERUSAN NILEM BARAT,Prop. Jawa Barat,SMA,-6.9355,107.6208
69899008,SMA BUDI BAKTI 1,Kp.pasirjambu Desa Margasari,Prop. Jawa Barat,SMA,-7.3749845,107.3491643
69761934,SMA NEGERI 1 PASIRKUDA,Jalan/Desa Padamulya kec. Pasirkuda Kabupaten Cianjur,Prop. Jawa Barat,SMA,-7.1992,107.1996
20252189,SMA TERPADU AL MASHUM MARDIYAH,JL. SIMPANG GALUDRA NO. 76,Prop. Jawa Barat,SMA,-6.7822,107.0479
20214986,SMAN 1 KARANG WARENG,JL. RAYA KH. ZAINAL A.,Prop. Jawa Barat,SMA,-6.8722,108.6583
20227847,SMAS KP CIKALONGWETAN,JL. RAYA CIKALONGWETAN,Prop. Jawa Barat,SMA,-6.7597,107.4626
20232305,SMAS AL FALAH,Jl. Alfalah Cikaret  RT.03/09,Prop. Jawa Barat,SMA,-6.455255,106.839447
20216202,SMAS NU INDRAMAYU,Jl. Ir. Sutami Gg. Manunggal,Prop. Jawa Barat,SMA,-6.358,108.3289
20222358,SMAS SEKAR KEMUNING CIREBON,JL.SEKAR KEMUNING NO.36,Prop. Jawa Barat,SMA,-6.742,108.538
20253662,SMAS BAITUL HIKMAH,JL. KEBON KELAPA TENJO JAYA CIBADAK,Prop. Jawa Barat,SMA,-6.9187,106.7713
20256408,SMAS IBNU SIENA CIKONENG,JL. MARGALUYU NO. 117 CIKONENG,Prop. Jawa Barat,SMA,-7.2166,108.4985
20200683,SMAS AULIA,JL. KH. ABDUL HAMID KM 3 DESA  SITU ILIR,Prop. Jawa Barat,SMA,-6.6048,106.6546
20238516,SMAN 2 BOGOR,JL. KERANJI UJUNG NO.1 BUDI AGUNG,Prop. Jawa Barat,SMA,-6.554,106.7939
69918550,SMA MUSLIMIN RONGGA,Kp. Genggong Rt.001 RW.016,Prop. Jawa Barat,SMA,-6.9756808,107.2787121
20247153,SMAS ISLAM AL BASHRY KALAPA NUNGGAL,JL. PALASARI GIRANG NO. 39,Prop. Jawa Barat,SMA,-6.8386,106.652
20216196,SMAS PGRI 1 SINDANG,JL. MT. HARYONO,Prop. Jawa Barat,SMA,-6.3401,108.299
20219239,SMAN 14 BANDUNG,JL. YUDHASTU PRAMUKA,Prop. Jawa Barat,SMA,-6.9029,107.6355
20212961,SMA NEGERI 1 KUNINGAN,JL. SILIWANGI NO. 55 KUNINGAN,Prop. Jawa Barat,SMA,-6.9778,108.4823
20223069,SMAS PANGERAN JAYAKARTA,JL. Pangeran Jayakarta Kav. Mekar Jaya Rt 001/006,Prop. Jawa Barat,SMA,-6.2257,106.9865
20227906,SMAN 1 KERTASARI,"JL. TERUSAN PACET KM. 15,5",Prop. Jawa Barat,SMA,-7.1549,107.6982
20227876,SMA PERKAPEN SINUMBRA,JL. PTPN VIII SINUMBRA,Prop. Jawa Barat,SMA,-7.1502,107.3338
69873999,SMA KRISTEN PENABUR KOTA WISATA,JL. TRANSYOGI KM 6 PERUMAHAN KOTA WISATA CIBUBUR,Prop. Jawa Barat,SMA,-6.446332,106.898707
20217785,SMAN 1 JATISARI,JL. RAYA JATISARI,Prop. Jawa Barat,SMA,-6.3666,107.5292
20232310,SMAS AL KHAIRIYAH,JL. PTP XI  HAMBALANG NO 76 DS. TAJUR CITEUREUP,Prop. Jawa Barat,SMA,-6.5488,106.9159
20269170,SMAS BINTANG MULIA,JL. MEKAR KENCANA NO.1,Prop. Jawa Barat,SMA,-6.9549,107.6148
69753509,SMAS IT MIFTAHULHUDA,KP. BOJONGKONENG RT 01 RW 06,Prop. Jawa Barat,SMA,-7.5764,108.1091
20229176,SMAS TADIKA PERTIWI,JL. H. JAERAN NO. 1,Prop. Jawa Barat,SMA,-6.339,106.7822
69888435,SMA BAITURRAHMAN,KP. CIHERANG RT 08/05,Prop. Jawa Barat,SMA,-6.906248,106.684609
20229153,SMAS ISLAM AN NIZHOMIYAH,JL. MADRASAH NO. 14,Prop. Jawa Barat,SMA,-6.4292283,106.8317917
69927177,SMAS KRISTEN IPEKA GRAND WISATA,Jl. Sunset Avenue Grand Wisata,Prop. Jawa Barat,SMA,-6.2783694,107.0533502
20274621,SMAS IBNU SINA,JL. KAPTEN HALIM BLK PSR SIMPAN,Prop. Jawa Barat,SMA,-6.5673,107.4516
20208419,SMAN 1 SUMEDANG,JL. P. GEUSAN ULUN NO.39 KOTA KULON- SUMEDANG SELATAN-SUMEDANG,Prop. Jawa Barat,SMA,-6.8583,107.9214
69946712,SMA TARBIYATUL ISLAM,Jl. Partadimaja No. 02 Rt/Rw 01/01,Prop. Jawa Barat,SMA,-7.4883,107.3476
20222361,SMAS TAMAN SISWA CIREBON,JL. PERJUANGAN BINAWAN V,Prop. Jawa Barat,SMA,-6.7367,108.5566
20232403,SMAS TARUNA TERPADU,JL. RAYA SEMPLAK SALABENDA BLK. TELKOM DS. PARAKAN JAYA,Prop. Jawa Barat,SMA,-6.4905,106.7313
20222362,SMAS WIDYA UTAMA CIREBON,JL. KESAMBI BARU I NO. 55A,Prop. Jawa Barat,SMA,-6.747,108.5376
20227824,SMA AULIA MAJALAYA,JL.TUGU PAHLAWAN KONDANG MAJALAYA,Prop. Jawa Barat,SMA,-7.0548,107.7572
20213894,SMAN 1 MAJA,JL. RAYA MAJA SELATAN NO. 06,Prop. Jawa Barat,SMA,-6.8891,108.304
20233753,SMAS DARUSSALAM KADANGHAUR,JL. RAYA BY PASS ERETAN,Prop. Jawa Barat,SMA,-6.3119,108.0425
20270923,SMA BINAUL UMMAH,JL. RAYA CIPARI KEL.CIPARI KEC.CIGUGUR,Prop. Jawa Barat,SMA,-6.9642,108.4677
69934744,SMA GAZA,Kp. Babakan RT 05 RW 02,Prop. Jawa Barat,SMA,-7.354,108.0165
69915810,SMAN 1 MAJALAYA,PERUM CITRA KEBUN MAS,Prop. Jawa Barat,SMA,-6.3283,107.3515
20253857,SMAS AL HASANAH,JL. STASIUN KA CIGOMBONG RT 02/01,Prop. Jawa Barat,SMA,-6.7413,106.8038
69759073,SMAS BIDAYATUL FAIZIN CIKAJANG,KP. NEGLA DESA CIPANGRAMATAN CIKAJANG - GARUT,Prop. Jawa Barat,SMA,-7.4203,107.8068
20213885,SMAN 1 JATIWANGI,JL. RAYA TIMUR NO. 2,Prop. Jawa Barat,SMA,-6.7263,108.2742
20232392,SMAS PGRI CIAWI,JL. VETERAN III CIAWI,Prop. Jawa Barat,SMA,-6.6772,106.8603
20229749,SMAS PASUNDAN PLERED,JL. WARUNG KANDANG PLERED GG COKLAT,Prop. Jawa Barat,SMA,-6.6481,107.3856
20214990,SMAN 1 PLUMBON,JL. YUDISTIRA,Prop. Jawa Barat,SMA,-6.6937,108.4794
69895683,SMA Terpadu Darul Muta`allimin,Jl. Bantarsari Lewosari,Prop. Jawa Barat,SMA,-7.323888,108.184319
20203733,SMA NEGERI 1 SUKARESMI,Jl. Mariwati KM. 4,Prop. Jawa Barat,SMA,-6.7198,107.0762
69934728,SMA PLUS ASSYIFA,Kp. Situpari RT 01 RW 03,Prop. Jawa Barat,SMA,-7.7015,108.1945
69883500,SMA ANNUR DARUNNAJAH 8,JL. INTAN 1,Prop. Jawa Barat,SMA,-6.396314,106.70495
20200686,SMAS DWI WARNA,Jalan Raya Parung Km. 40,Prop. Jawa Barat,SMA,-6.4424,106.7317
20247146,SMAS AL-BAIRUNI,JL. RAYA CIDADAP SUKABUMI,Prop. Jawa Barat,SMA,-7.0395,106.6534
20271843,SMA PLUS AL-HIDAYAH CILAWU,"KP. CIGARUNGSANG, RT. 02, RW. 01",Prop. Jawa Barat,SMA,-7.2958,107.9105
69822688,SMAS ISLAM TERPADU SITUWANGI CIKAJANG,Kp Seladatar RT 04 RW 01,Prop. Jawa Barat,SMA,-7.36,107.7963
20246335,SMAS PLUS YASPIDA,JL.PARUNGSEAH NO.43 KM.4 CIPETIR,Prop. Jawa Barat,SMA,-6.8932,106.886
20202258,SMAN 1 SIMPENAN,JL. BINA KARYA,Prop. Jawa Barat,SMA,-7.03,106.5681
20223067,SMAS ISLAM PANGLIMA BESAR SOEDIRMAN,JL. TAMAN SOKA II TAMAN GALAXY,Prop. Jawa Barat,SMA,-6.2399,106.9997
20265518,SMAS ALFA CENTAURI,JL. Diponegoro No. 48,Prop. Jawa Barat,SMA,-6.9012,107.6244
20223040,SMAN 9 BEKASI,JL. RAYA LEGENDA,Prop. Jawa Barat,SMA,-6.2836,107.032
20244764,SMAS IT AL LUTFAH,JL. VILLA MUTIARA NO. 3 CIKARANG SELATAN BEKASI,Prop. Jawa Barat,SMA,-6.3412,107.1148
20247281,SMAS SUMATRA 40-1,JL. PAHLAWAN NO. 21,Prop. Jawa Barat,SMA,-6.9001,107.6337
69947934,SMA ISLAM NURUL BAYAN SUKAWANGI,Kp. Ciwaru RT 01 RW 01,Prop. Jawa Barat,SMA,-7.4993094,107.9227671
20200884,SMAN 1 CARIU,JL. RAYA CARIU,Prop. Jawa Barat,SMA,-6.5235,107.1266
20237990,SMAN 1 KEDUNGWARINGIN,JL.RAYA LINGKAR KEDUNGWARINGIN,Prop. Jawa Barat,SMA,-6.2689,107.268
20219241,SMAN 12 BANDUNG,Jl. Sekejati IV No. 36 Kiaracondong,Prop. Jawa Barat,SMA,-6.941,107.6459
20233657,SMAN 1 PATOKBEUSI,JL. RAYA RAWAGEBANG KM. 1 PATOKBEUSI,Prop. Jawa Barat,SMA,-6.3754,107.5833
20253827,SMA NEGERI 1 DARMA,JL. DESA CIPASUNG KM 15,Prop. Jawa Barat,SMA,-7.018,108.3928
20232376,SMAN 1 CISEENG,Jln. Cibeuteung Muara Rt.02/06,Prop. Jawa Barat,SMA,-6.4006,106.693
20237379,SMAN 1 RENGASDENGKLOK,JL. KUTAGANDOK,Prop. Jawa Barat,SMA,-6.1571,107.3271
20231720,SMAN 14 BEKASI,JL. CERI RAYA PERUM ALINDA KENCANA PERMAI,Prop. Jawa Barat,SMA,-6.1965,107.0085
20253810,SMAS DON BOSCO III,JL. SENTOSA RAYA TAMAN SENTOSA KEC. CIKARANG SELATAN,Prop. Jawa Barat,SMA,-6.3212,107.1391
20217361,SMAN 2 PURWAKARTA,JL. RAYA SADANG NO.17,Prop. Jawa Barat,SMA,-6.5136,107.4662
20224543,SMAS PLUS PESANTREN AMANAH MUHAMMDIYAH,JL. SAMBONGJAYA NO. 50,Prop. Jawa Barat,SMA,-7.3484,108.1998
69888757,SMA PGRI CITRA CIKIDANG,Jl. Lio,Prop. Jawa Barat,SMA,-6.918992,106.620416
20219731,SMAS BINA BHAKTI 1,JL. BIMA NO. 9,Prop. Jawa Barat,SMA,-6.9122,107.5951
20206145,SMAN 1 CIPARAY,JL. RAYA PACET NO. 188,Prop. Jawa Barat,SMA,-7.051395,107.709664
20252009,SMAN 1 NYALINDUNG,JL. RANCABALI,Prop. Jawa Barat,SMA,-7.0329,106.9441
69935715,SMA IT AR-ROHMAH,Kp.Cipatat RT 03 RW 08,Prop. Jawa Barat,SMA,-7.7155,108.1917
20232375,SMAN 1 CISARUA,JL. ADHIJAKSA RT. 02 RW.02,Prop. Jawa Barat,SMA,-6.6661,106.926
20222379,SMAS ADVENT CIREBON,JL. PULASAREN NO 01,Prop. Jawa Barat,SMA,-6.724,108.5697
20220343,SMAS REGINA PACIS,JL. IR HJ. JUANDA NO. 2,Prop. Jawa Barat,SMA,-6.5921,106.7964
20227882,SMA TERPADU BANDUNG IBUN,JL. OMA ANGGAWISASTRA CIBEET IBUN,Prop. Jawa Barat,SMA,-7.0845,107.7611
20215988,SMAS PGRI PATROL,JL. MASJID JAMI PATROL,Prop. Jawa Barat,SMA,-6.3156,107.9947
69901004,SMA IC MAGNET SCHOOL,Kampung Pasir Ipis,Prop. Jawa Barat,SMA,-6.63474,106.706094
69786316,SMAS ISLAM AL-AZHAR HARAPAN INDAH,Jl. Al-Azhar Kav No.18-21,Prop. Jawa Barat,SMA,-6.1836,106.9944
20231314,SMAS MANBAUL HUDA,"JL. TRANS YOGIE SERENA , DS. SIRNASARI",Prop. Jawa Barat,SMA,-6.6159,107.1557
20209182,SMAN 18 GARUT,JL.PERUM BUMI ABDI NEGARA 1,Prop. Jawa Barat,SMA,-7.1944,107.9334
69894140,SMA IT AS - SYAKUR,Kp. Cicara RT 03/05,Prop. Jawa Barat,SMA,-7.221519,107.786556
69899184,SMA MUHAMMADIYAH 04 DEPOK,JL. MASJID AL-HUKAMA NO.21 RT.3 RW.4,Prop. Jawa Barat,SMA,-6.3872,106.7709
20200677,SMAS MUHAMMADIYAH CILEUNGSI,JL. ANGGREK NO.25 CILEUNGSI,Prop. Jawa Barat,SMA,-6.3993,106.9661
20223817,SMAN 3 KOTA DEPOK,JL. RADEN SALEH NO. 45,Prop. Jawa Barat,SMA,-6.407879,106.841031
20270262,SMA BINA BANGSA SCHOOL,JL. SENTRA DAGO PAKAR BLOK F-1,Prop. Jawa Barat,SMA,-6.8644,107.6455
20209194,SMAN 21 GARUT,JL. PANORAMA CIBUNGUR,Prop. Jawa Barat,SMA,-7.2934,107.5293
20220344,SMAS RIMBA MADYA,JL. RIMBA MULYA II,Prop. Jawa Barat,SMA,-6.6008,106.7759
69915815,SMAN 2 TELUKJAMBE TIMUR,JL. Raya Perumnas Bumi Telukjambe Blok H,Prop. Jawa Barat,SMA,-6.3584528,107.2885393
20211491,SMAN 1 BAREGBEG,JL. R.E. MARTADINATA NO.150 CIAMIS,Prop. Jawa Barat,SMA,-7.3152,108.3576
20247179,SMAS AL MIZAN JATIWANGI,JL. RAYA TIMUR CIBORELANG NO.1 JATIWANGI,Prop. Jawa Barat,SMA,-6.7264,108.2742
20246730,SMAS GLOBAL PRESTASI,Komplek GPS Jl. KH. Noer Alie No. 10 B Kalimalang,Prop. Jawa Barat,SMA,-6.2488,106.962
69816259,SMA IBNU HAJAR BOARDING SCHOOL,Jl. Nakula No. 01 RT. 01 RW. 01 Kel. Harjamukti Kec. Cimanggis Kota Depok 16454,Prop. Jawa Barat,SMA,-6.3839,106.8843
20231334,SMAN 1 PAMIJAHAN,JL. Gunung Salak Endah km. 03 Kec. Pamijahan Kab. Bogor,Prop. Jawa Barat,SMA,-6.6685,106.6632
20229752,SMAS PGRI 1 PURWAKARTA,JL. LAKS. (L). RE. MARTADINATA  NO.87,Prop. Jawa Barat,SMA,-6.553,107.4431
20219237,SMAN 16 BANDUNG,JL. MEKARSARI NO. 81,Prop. Jawa Barat,SMA,-6.9265,107.6568
69895400,SMA BPK PENABUR HOLIS,Jl. Komplek Taman Holis Indah Blok A,Prop. Jawa Barat,SMA,-6.934315,107.57332
20208421,SMAN 3 SUMEDANG,JL. CIPADUNG NO. 54,Prop. Jawa Barat,SMA,-6.8441,107.9288
20238547,SMAS CIPICUNG,JL. CIPICUNG PUSPAMUKTI CIGALONTANG,Prop. Jawa Barat,SMA,-7.3486,108.0139
20219767,SMAS PASUNDAN 1 BANDUNG,Jl. Balonggede No. 28,Prop. Jawa Barat,SMA,-6.9237,107.6075
20223019,SMAN 10 BEKASI,JL. FLAMBOYAN RAYA PERUM HARAPAN INDAH,Prop. Jawa Barat,SMA,-6.2091,106.9748
20229156,SMAS ISLAMIYAH SAWANGAN,JL. RAYA MUKHTAR NO. 136,Prop. Jawa Barat,SMA,-6.4057,106.7595
20247156,SMAS ISLAM TARBIYYATUL FALAH,JL. CIMELATI SADAMUKTI KEC. CICURUG KAB. SUKABUMI PROV. JAWA BARAT,Prop. Jawa Barat,SMA,-6.784,106.7786
69882370,SMA PELITA NUSANTARA,JL. PALEDANG NO 297 A RT 05/02,Prop. Jawa Barat,SMA,-6.91819,107.587795
20223819,SMAN 1 KOTA DEPOK,JL. NUSANTARA RAYA 317 DEPOK,Prop. Jawa Barat,SMA,-6.3951,106.8144
20229183,SMAS YAPEMRI DEPOK,JL. AGUNG RAYA UJUNG NO. 3,Prop. Jawa Barat,SMA,-6.3943,106.8465
69823285,SMAN 3 BABELAN,Perum Pondok Ungu Permai Sektor V Blok G RT. 006/030,Prop. Jawa Barat,SMA,-6.1724,107.0104
20251886,SMAS PLUS AL-FALAH JATINAGOR,JL. CIKUDA-NANGGERANG KM. 02 DESA CILELES JATINANGOR,Prop. Jawa Barat,SMA,-6.9077,107.773
69902577,SMA SIROJUL HUDA SUKAWENING,Kp. Babakan,Prop. Jawa Barat,SMA,-7.1428,108.016
69922135,SMA IT MAROKO,Kp. Sukawangi RT 01/03,Prop. Jawa Barat,SMA,-7.6488,107.8882
20221562,SMAN 4 SUKABUMI,JL. IR. H. JUANDA NO. 8 SUKABUMI,Prop. Jawa Barat,SMA,-6.9211,106.9445
20217780,SMAN 1 TELUKJAMBE,JL. Ronggowaluyo,Prop. Jawa Barat,SMA,-6.3246,107.3053
20219240,SMAN 13 BANDUNG,JL. RAYA CIBEUREUM NO 52,Prop. Jawa Barat,SMA,-6.9036,107.5651
20219806,SMAS MUHAMMADIYAH 2,JL. SARI WETES RAYA NO.6,Prop. Jawa Barat,SMA,-6.9177,107.6556
20203739,SMAN 1 CIANJUR,JL. PANGERAN HIDAYATULLAH NO. 62,Prop. Jawa Barat,SMA,-6.8256,107.1314
20272074,SMAS MIFTAHUL HUDA AL BARKAH,JL. H. MIHARJA,Prop. Jawa Barat,SMA,-6.6558,107.0826
69893110,SMA DAARUT TAUHIID BOARDING SCHOOL,Jalan Cigugur Girang No.33 RT.03 RW.07,Prop. Jawa Barat,SMA,-6.8359,107.5839
20209377,SMAS BAITUL HIKMAH TAROGONG KALER,JL. OTTO ISKANDARDINATA NO.66,Prop. Jawa Barat,SMA,-7.1858,107.8892
20238570,SMAS PUSAKA NUSANTARA 2,JL. SULTAN HASANUDIN NO.5A,Prop. Jawa Barat,SMA,-6.2615,107.059
20271986,SMAS PUSPA BANGSA,JL. RAYA SURUPAN,Prop. Jawa Barat,SMA,-6.5785,106.9591
20229173,SMAS PSKD VII,JL. PITARA NO. 19,Prop. Jawa Barat,SMA,-6.4001,106.8103
69786290,SMAS LGBP SINDANGKERTA,JL. PONPES PALAHAN KM.1 RT.03 RW.08,Prop. Jawa Barat,SMA,-6.9761,107.3928
20209351,SMAN 26 GARUT,Jl. Kmp Tegal Panjang RT 01 RW 16,Prop. Jawa Barat,SMA,-7.142498,108.014798
69900067,SMA SULTHAN BARUNA,Jl.Simpang Desa Padaluyu Kec.Cikadu,Prop. Jawa Barat,SMA,-7.3441625,107.2336717
20253661,SMANURUL HUDA,JL. BABAKAN ASTANA NO.3,Prop. Jawa Barat,SMA,-6.9971,106.559
69774710,SMAS PELITA BANGSA,KP. SUKAMULYA,Prop. Jawa Barat,SMA,-7.1393,108.053
20229155,SMAS ISLAM DARUSSALAM,JL. KEBAYUNAN RT. 01 RW. 17 NO. 125,Prop. Jawa Barat,SMA,-6.4055,106.8971
20232410,SMAS YAPISA,JL. KH. RAFEI NO. 11 DS. NAGRAK,Prop. Jawa Barat,SMA,-6.384,106.9422
20216207,SMAS MUHAMMADIYAH HAURGEULIS,JL. KH. AHMAD DAHLAN NO. 3,Prop. Jawa Barat,SMA,-6.4599,107.9441
